name,region_id,capacity,lon,short_name,station_id,rental_uris,lat,region_name
North Shore & Cameron Crescent Dr/Crescent Apartments,104,11,-77.338686,32209,0826380c-1f3f-11e7-bf6b-3863bb334450,"{'ios': 'https://dc.lft.to/lastmile_qr_scan', 'android': 'https://dc.lft.to/lastmile_qr_scan'}",38.970046,"Fairfax, VA"
White Oak Transit Center,44,19,-76.987125,32093,6edca550-d78f-4c5d-ad2c-79d1ce88c48d,"{'ios': 'https://dc.lft.to/lastmile_qr_scan', 'android': 'https://dc.lft.to/lastmile_qr_scan'}",39.04104,"Montgomery County, MD (South)"
47th & Elm St,44,15,-77.091991,32021,08259c89-1f3f-11e7-bf6b-3863bb334450,"{'ios': 'https://dc.lft.to/lastmile_qr_scan', 'android': 'https://dc.lft.to/lastmile_qr_scan'}",38.982456,"Montgomery County, MD (South)"
Dorr Ave & Prosperity Ave,,11,-77.233583,31396,1890204129337198944,"{'ios': 'https://dc.lft.to/lastmile_qr_scan', 'android': 'https://dc.lft.to/lastmile_qr_scan'}",38.879256,
Emma Lee St & Morris St,104,12,-77.209421,32266,3d8b6392-9572-4c65-b71c-fd8f03af9ab2,"{'ios': 'https://dc.lft.to/lastmile_qr_scan', 'android': 'https://dc.lft.to/lastmile_qr_scan'}",38.877818,"Fairfax, VA"
2nd St & Massachusetts Ave NE,42,23,-77.003135,31641,08261e7a-1f3f-11e7-bf6b-3863bb334450,"{'ios': 'https://dc.lft.to/lastmile_qr_scan', 'android': 'https://dc.lft.to/lastmile_qr_scan'}",38.894972,"Washington, DC"
6th & K St NE,42,19,-76.99840486049652,31645,082644bc-1f3f-11e7-bf6b-3863bb334450,"{'ios': 'https://dc.lft.to/lastmile_qr_scan', 'android': 'https://dc.lft.to/lastmile_qr_scan'}",38.90293157359119,"Washington, DC"
Reston Town Center Metro North,104,23,-77.359717,32243,e823318f-8406-4230-8072-1667f5de78d4,"{'ios': 'https://dc.lft.to/lastmile_qr_scan', 'android': 'https://dc.lft.to/lastmile_qr_scan'}",38.953691,"Fairfax, VA"
Randle Circle & Minnesota Ave SE,42,11,-76.9607,31702,08247fe1-1f3f-11e7-bf6b-3863bb334450,"{'ios': 'https://dc.lft.to/lastmile_qr_scan', 'android': 'https://dc.lft.to/lastmile_qr_scan'}",38.878,"Washington, DC"
31st St & S Woodrow St,41,8,-77.0934784,31072,0825be94-1f3f-11e7-bf6b-3863bb334450,"{'ios': 'https://dc.lft.to/lastmile_qr_scan', 'android': 'https://dc.lft.to/lastmile_qr_scan'}",38.8378458,"Arlington, VA"
N Lynn St & Fairfax Dr,41,15,-77.070862,31917,0826402c-1f3f-11e7-bf6b-3863bb334450,"{'ios': 'https://dc.lft.to/lastmile_qr_scan', 'android': 'https://dc.lft.to/lastmile_qr_scan'}",38.89386,"Arlington, VA"
37th & Ely Pl SE,42,15,-76.950009,31715,ee2cb739-9118-4069-b4f7-435ef53db537,"{'ios': 'https://dc.lft.to/lastmile_qr_scan', 'android': 'https://dc.lft.to/lastmile_qr_scan'}",38.883132,"Washington, DC"
N Shore Dr & Wainwright Dr,104,12,-77.349764,32259,c98241f4-a3c0-4eb8-86bd-dd057baa0192,"{'ios': 'https://dc.lft.to/lastmile_qr_scan', 'android': 'https://dc.lft.to/lastmile_qr_scan'}",38.963782,"Fairfax, VA"
Langston Blvd & N Kirkwood Rd,41,15,-77.09713,31094,0825ff8d-1f3f-11e7-bf6b-3863bb334450,"{'ios': 'https://dc.lft.to/lastmile_qr_scan', 'android': 'https://dc.lft.to/lastmile_qr_scan'}",38.895377,"Arlington, VA"
2nd & G St NE,42,23,-77.003666,31639,082604dd-1f3f-11e7-bf6b-3863bb334450,"{'ios': 'https://dc.lft.to/lastmile_qr_scan', 'android': 'https://dc.lft.to/lastmile_qr_scan'}",38.89967,"Washington, DC"
Calvert & Biltmore St NW,42,23,-77.047637,31106,0824773f-1f3f-11e7-bf6b-3863bb334450,"{'ios': 'https://dc.lft.to/lastmile_qr_scan', 'android': 'https://dc.lft.to/lastmile_qr_scan'}",38.923203,"Washington, DC"
Reed & Edison,40,11,-77.060899,31956,febec658-2bcd-473e-8ba8-f84f016da7cd,"{'ios': 'https://dc.lft.to/lastmile_qr_scan', 'android': 'https://dc.lft.to/lastmile_qr_scan'}",38.83728,"Alexandria, VA"
1301 McCormick Dr / Wayne K. Curry Admin Bldg,133,15,-76.843263,32400,987decdd-577d-4614-a6eb-307944a634b4,"{'ios': 'https://dc.lft.to/lastmile_qr_scan', 'android': 'https://dc.lft.to/lastmile_qr_scan'}",38.908391,Prince George's County
New Jersey Ave & K St NW,42,23,-77.01366662979126,31642,082624fc-1f3f-11e7-bf6b-3863bb334450,"{'ios': 'https://dc.lft.to/lastmile_qr_scan', 'android': 'https://dc.lft.to/lastmile_qr_scan'}",38.90257109172293,"Washington, DC"
East Falls Church Metro / Sycamore St & 19th St N,41,19,-77.15642720460892,31904,08261f4b-1f3f-11e7-bf6b-3863bb334450,"{'ios': 'https://dc.lft.to/lastmile_qr_scan', 'android': 'https://dc.lft.to/lastmile_qr_scan'}",38.88532071975074,"Arlington, VA"
Prince George's Plaza Metro,133,17,-76.954803,32420,ebbf6e18-684d-4fc9-ad4d-c025b8d76556,"{'ios': 'https://dc.lft.to/lastmile_qr_scan', 'android': 'https://dc.lft.to/lastmile_qr_scan'}",38.965742,Prince George's County
Fenton St & Gist Ave,44,11,-77.023854,32024,0825ac97-1f3f-11e7-bf6b-3863bb334450,"{'ios': 'https://dc.lft.to/lastmile_qr_scan', 'android': 'https://dc.lft.to/lastmile_qr_scan'}",38.989724,"Montgomery County, MD (South)"
Golf Course Sq and Golf Course Dr,104,12,-77.353552,32246,13c42471-96ab-441d-9a4c-bc57f7af6f9b,"{'ios': 'https://dc.lft.to/lastmile_qr_scan', 'android': 'https://dc.lft.to/lastmile_qr_scan'}",38.944013,"Fairfax, VA"
N Shore Dr & Bandit Loop,,11,-77.331794,31383,1900964406001033780,"{'ios': 'https://dc.lft.to/lastmile_qr_scan', 'android': 'https://dc.lft.to/lastmile_qr_scan'}",38.95937,
Columbia Rd & Belmont St NW,42,20,-77.04368,31113,0824f461-1f3f-11e7-bf6b-3863bb334450,"{'ios': 'https://dc.lft.to/lastmile_qr_scan', 'android': 'https://dc.lft.to/lastmile_qr_scan'}",38.920669,"Washington, DC"
Central Library / Quincy St & 10th St N,41,12,-77.10783,31025,0825213e-1f3f-11e7-bf6b-3863bb334450,"{'ios': 'https://dc.lft.to/lastmile_qr_scan', 'android': 'https://dc.lft.to/lastmile_qr_scan'}",38.88397,"Arlington, VA"
The Mall at Prince Georges,133,17,-76.954171,32422,d34d2639-ee43-4892-818f-f01116813744,"{'ios': 'https://dc.lft.to/lastmile_qr_scan', 'android': 'https://dc.lft.to/lastmile_qr_scan'}",38.968842,Prince George's County
Lincoln Rd & Seaton Pl NE/Harry Thomas Rec Center,42,19,-77.0078,31523,6d5ad96d-a704-4fa6-8b65-3ac643c5aa93,"{'ios': 'https://dc.lft.to/lastmile_qr_scan', 'android': 'https://dc.lft.to/lastmile_qr_scan'}",38.915,"Washington, DC"
Market St & St Francis St,104,12,-77.361516,32242,0136af02-2670-4042-b5cd-18b46c15c0c1,"{'ios': 'https://dc.lft.to/lastmile_qr_scan', 'android': 'https://dc.lft.to/lastmile_qr_scan'}",38.95866,"Fairfax, VA"
15th & Euclid St NW,42,15,-77.0352,31117,0825525a-1f3f-11e7-bf6b-3863bb334450,"{'ios': 'https://dc.lft.to/lastmile_qr_scan', 'android': 'https://dc.lft.to/lastmile_qr_scan'}",38.92333,"Washington, DC"
Washington & Independence Ave SW/HHS,42,31,-77.013769,31272,08256e11-1f3f-11e7-bf6b-3863bb334450,"{'ios': 'https://dc.lft.to/lastmile_qr_scan', 'android': 'https://dc.lft.to/lastmile_qr_scan'}",38.886978,"Washington, DC"
Georgia & Missouri Ave NW,42,19,-77.027855,31411,082605b0-1f3f-11e7-bf6b-3863bb334450,"{'ios': 'https://dc.lft.to/lastmile_qr_scan', 'android': 'https://dc.lft.to/lastmile_qr_scan'}",38.961339,"Washington, DC"
7th & R St NW / Shaw Library,42,15,-77.022155,31245,082514b8-1f3f-11e7-bf6b-3863bb334450,"{'ios': 'https://dc.lft.to/lastmile_qr_scan', 'android': 'https://dc.lft.to/lastmile_qr_scan'}",38.912719,"Washington, DC"
16th & R St NW,42,19,-77.036278,31282,0826183f-1f3f-11e7-bf6b-3863bb334450,"{'ios': 'https://dc.lft.to/lastmile_qr_scan', 'android': 'https://dc.lft.to/lastmile_qr_scan'}",38.912652,"Washington, DC"
S Arlington Mill Dr & Campbell Ave,41,15,-77.089555,31060,08254dee-1f3f-11e7-bf6b-3863bb334450,"{'ios': 'https://dc.lft.to/lastmile_qr_scan', 'android': 'https://dc.lft.to/lastmile_qr_scan'}",38.84232,"Arlington, VA"
12th & U St NW,42,31,-77.028139,31268,08256670-1f3f-11e7-bf6b-3863bb334450,"{'ios': 'https://dc.lft.to/lastmile_qr_scan', 'android': 'https://dc.lft.to/lastmile_qr_scan'}",38.916787,"Washington, DC"
Anacostia Ave & Benning Rd NE / River Terrace ,42,15,-76.96012,31708,082518eb-1f3f-11e7-bf6b-3863bb334450,"{'ios': 'https://dc.lft.to/lastmile_qr_scan', 'android': 'https://dc.lft.to/lastmile_qr_scan'}",38.896544,"Washington, DC"
Reservoir Rd & 38th St NW,42,19,-77.07432264076488,31325,7a19d0e7-2b3c-4805-b843-1aec84a05bfe,"{'ios': 'https://dc.lft.to/lastmile_qr_scan', 'android': 'https://dc.lft.to/lastmile_qr_scan'}",38.91261359469192,"Washington, DC"
12th & L St NW,42,19,-77.0284,31251,082537e4-1f3f-11e7-bf6b-3863bb334450,"{'ios': 'https://dc.lft.to/lastmile_qr_scan', 'android': 'https://dc.lft.to/lastmile_qr_scan'}",38.903819,"Washington, DC"
Fenton St & New York Ave ,44,15,-77.023082,32001,08257325-1f3f-11e7-bf6b-3863bb334450,"{'ios': 'https://dc.lft.to/lastmile_qr_scan', 'android': 'https://dc.lft.to/lastmile_qr_scan'}",38.985404,"Montgomery County, MD (South)"
Merrilee Dr & Lauren Elizabeth Lane,104,11,-77.23076596856116,32234,a77b8993-6d68-425e-a37a-0e613a7cb17a,"{'ios': 'https://dc.lft.to/lastmile_qr_scan', 'android': 'https://dc.lft.to/lastmile_qr_scan'}",38.87857249314831,"Fairfax, VA"
15th & F St NE,42,20,-76.983575,31632,0825610d-1f3f-11e7-bf6b-3863bb334450,"{'ios': 'https://dc.lft.to/lastmile_qr_scan', 'android': 'https://dc.lft.to/lastmile_qr_scan'}",38.897195,"Washington, DC"
1st & H St NW,42,15,-77.012108,31638,0825e1e5-1f3f-11e7-bf6b-3863bb334450,"{'ios': 'https://dc.lft.to/lastmile_qr_scan', 'android': 'https://dc.lft.to/lastmile_qr_scan'}",38.900358,"Washington, DC"
Reston Town Center Metro South,104,19,-77.361466,32258,5dfab137-f65a-41c0-99ef-d58f29a735b2,"{'ios': 'https://dc.lft.to/lastmile_qr_scan', 'android': 'https://dc.lft.to/lastmile_qr_scan'}",38.9523,"Fairfax, VA"
Garland Ave & Walden Rd,44,15,-77.00077,32082,a3761e59-db36-4b61-8bb3-8d523af69b96,"{'ios': 'https://dc.lft.to/lastmile_qr_scan', 'android': 'https://dc.lft.to/lastmile_qr_scan'}",39.00048,"Montgomery County, MD (South)"
Brenman Park Dr & Somervelle St,40,15,-77.116242,31001,2080485651052569546,"{'ios': 'https://dc.lft.to/lastmile_qr_scan', 'android': 'https://dc.lft.to/lastmile_qr_scan'}",38.809187,"Alexandria, VA"
Herndon Metro South ,104,12,-77.38455697243313,32321,2069025384409258804,"{'ios': 'https://dc.lft.to/lastmile_qr_scan', 'android': 'https://dc.lft.to/lastmile_qr_scan'}",38.952000700159665,"Fairfax, VA"
S Washington St & Wilkes St,40,12,-77.048043,31958,472dee60-f045-4f2e-9807-193e3ae9b661,"{'ios': 'https://dc.lft.to/lastmile_qr_scan', 'android': 'https://dc.lft.to/lastmile_qr_scan'}",38.800703,"Alexandria, VA"
5th St & Massachusetts Ave NW,42,19,-77.018677,31265,08254442-1f3f-11e7-bf6b-3863bb334450,"{'ios': 'https://dc.lft.to/lastmile_qr_scan', 'android': 'https://dc.lft.to/lastmile_qr_scan'}",38.90093,"Washington, DC"
Becontree Ln & Goldenrain Ct,104,12,-77.329282,32239,e976c0ab-bc21-42b3-a2c2-b90def6f54f4,"{'ios': 'https://dc.lft.to/lastmile_qr_scan', 'android': 'https://dc.lft.to/lastmile_qr_scan'}",38.966848,"Fairfax, VA"
Oglethorpe St & 42nd Ave,133,15,-76.946361,32408,42ad2bc8-22b5-40f2-8a56-e562e4ecde07,"{'ios': 'https://dc.lft.to/lastmile_qr_scan', 'android': 'https://dc.lft.to/lastmile_qr_scan'}",38.959361,Prince George's County
53rd & D St SE/C.W. Harris Elementary,42,19,-76.925315,31671,12b1c990-90e7-4fef-a5b9-c78d4c81af96,"{'ios': 'https://dc.lft.to/lastmile_qr_scan', 'android': 'https://dc.lft.to/lastmile_qr_scan'}",38.883318,"Washington, DC"
Pentagon City Metro / 12th St & S Hayes St,41,19,-77.059936,31005,08246df5-1f3f-11e7-bf6b-3863bb334450,"{'ios': 'https://dc.lft.to/lastmile_qr_scan', 'android': 'https://dc.lft.to/lastmile_qr_scan'}",38.862303,"Arlington, VA"
Blenheim Blvd & North St,,12,-77.303349,32278,1874573898176678104,"{'ios': 'https://dc.lft.to/lastmile_qr_scan', 'android': 'https://dc.lft.to/lastmile_qr_scan'}",38.846972,
3rd & H St NE,42,19,-77.001949,31616,0824bce1-1f3f-11e7-bf6b-3863bb334450,"{'ios': 'https://dc.lft.to/lastmile_qr_scan', 'android': 'https://dc.lft.to/lastmile_qr_scan'}",38.900412,"Washington, DC"
Clarendon Blvd & Pierce St,41,15,-77.076389,31016,0824eba7-1f3f-11e7-bf6b-3863bb334450,"{'ios': 'https://dc.lft.to/lastmile_qr_scan', 'android': 'https://dc.lft.to/lastmile_qr_scan'}",38.893438,"Arlington, VA"
39th St & Tunlaw Rd NW,,19,-77.079119,31392,1879766346478500482,"{'ios': 'https://dc.lft.to/lastmile_qr_scan', 'android': 'https://dc.lft.to/lastmile_qr_scan'}",38.9257,
S Maple Ave & S Washington St,152,12,-77.178408,32607,5e571279-84a3-4dd6-9ee5-6a834e4c624a,"{'ios': 'https://dc.lft.to/lastmile_qr_scan', 'android': 'https://dc.lft.to/lastmile_qr_scan'}",38.87972,"Falls Church, VA"
Wilson Blvd & N Oak St,41,17,-77.07386,31939,83c9bc80-bc42-4e5d-9f5e-6c24812e6e37,"{'ios': 'https://dc.lft.to/lastmile_qr_scan', 'android': 'https://dc.lft.to/lastmile_qr_scan'}",38.895068,"Arlington, VA"
Joliet St & MLK Ave SW/Bald Eagle Rec Ctr,42,15,-77.01033,31819,7c46ff05-4fca-44e6-a50b-acbc57e8100b,"{'ios': 'https://dc.lft.to/lastmile_qr_scan', 'android': 'https://dc.lft.to/lastmile_qr_scan'}",38.81909,"Washington, DC"
Mt Vernon Trail & S. Washington St.,40,15,-77.049436,31929,8d8a3add-40b4-41ba-bffe-5a754ebc1625,"{'ios': 'https://dc.lft.to/lastmile_qr_scan', 'android': 'https://dc.lft.to/lastmile_qr_scan'}",38.7930647,"Alexandria, VA"
Crescent Rd & Ridge Rd,133,15,-76.891247,32425,10d57c0d-6f3c-45d1-8a12-eda5665e213c,"{'ios': 'https://dc.lft.to/lastmile_qr_scan', 'android': 'https://dc.lft.to/lastmile_qr_scan'}",39.006191,Prince George's County
19th St N & Ft Myer Dr,41,15,-77.072143,31014,0824ea2c-1f3f-11e7-bf6b-3863bb334450,"{'ios': 'https://dc.lft.to/lastmile_qr_scan', 'android': 'https://dc.lft.to/lastmile_qr_scan'}",38.897218,"Arlington, VA"
Columbia Rd & Georgia Ave NW,42,27,-77.0237946510315,31115,0825164b-1f3f-11e7-bf6b-3863bb334450,"{'ios': 'https://dc.lft.to/lastmile_qr_scan', 'android': 'https://dc.lft.to/lastmile_qr_scan'}",38.92812111132096,"Washington, DC"
Monroe St & Monroe Pl,43,15,-77.149162,32017,082595a1-1f3f-11e7-bf6b-3863bb334450,"{'ios': 'https://dc.lft.to/lastmile_qr_scan', 'android': 'https://dc.lft.to/lastmile_qr_scan'}",39.083673,"Montgomery County, MD (North)"
N Hampton Dr & Ford Ave,40,11,-77.106111,31941,e456b38d-7f5e-4d06-b2bc-022b42097a06,"{'ios': 'https://dc.lft.to/lastmile_qr_scan', 'android': 'https://dc.lft.to/lastmile_qr_scan'}",38.837306,"Alexandria, VA"
Yuma St & Tenley Circle NW,42,19,-77.08059,31316,0826139b-1f3f-11e7-bf6b-3863bb334450,"{'ios': 'https://dc.lft.to/lastmile_qr_scan', 'android': 'https://dc.lft.to/lastmile_qr_scan'}",38.946182,"Washington, DC"
McLean Metro,104,19,-77.20812678337097,32230,6ffb5d30-d3f4-462b-8182-c552bebc9310,"{'ios': 'https://dc.lft.to/lastmile_qr_scan', 'android': 'https://dc.lft.to/lastmile_qr_scan'}",38.92400207520182,"Fairfax, VA"
Constitution Ave & 2nd St NW/DOL,42,27,-77.013917,31271,08256d91-1f3f-11e7-bf6b-3863bb334450,"{'ios': 'https://dc.lft.to/lastmile_qr_scan', 'android': 'https://dc.lft.to/lastmile_qr_scan'}",38.892275,"Washington, DC"
16th St & North Carolina Ave NE,,19,-76.982464,31725,1932168474073292810,"{'ios': 'https://dc.lft.to/lastmile_qr_scan', 'android': 'https://dc.lft.to/lastmile_qr_scan'}",38.893062,
E Fairfax St & S Washington St,152,12,-77.171891,32604,6e652351-dad9-45e4-a0a7-dda0417973f4,"{'ios': 'https://dc.lft.to/lastmile_qr_scan', 'android': 'https://dc.lft.to/lastmile_qr_scan'}",38.880612,"Falls Church, VA"
North Capitol St & G Pl NE,42,19,-77.008911,31637,0825be05-1f3f-11e7-bf6b-3863bb334450,"{'ios': 'https://dc.lft.to/lastmile_qr_scan', 'android': 'https://dc.lft.to/lastmile_qr_scan'}",38.899703,"Washington, DC"
14th & Otis Pl NW,42,27,-77.032687,31131,2a43f4e2-4102-482e-8879-245cf7555c6b,"{'ios': 'https://dc.lft.to/lastmile_qr_scan', 'android': 'https://dc.lft.to/lastmile_qr_scan'}",38.934405,"Washington, DC"
Van Dorn Metro,40,19,-77.1299434,31932,dfa896d9-9209-413d-b494-e255ef513d2c,"{'ios': 'https://dc.lft.to/lastmile_qr_scan', 'android': 'https://dc.lft.to/lastmile_qr_scan'}",38.8000766,"Alexandria, VA"
Gallaudet / 8th St & Florida Ave NE,42,19,-76.9941,31508,08252b28-1f3f-11e7-bf6b-3863bb334450,"{'ios': 'https://dc.lft.to/lastmile_qr_scan', 'android': 'https://dc.lft.to/lastmile_qr_scan'}",38.90509,"Washington, DC"
Kansas Ave & Tuckerman St NW / Lamond Rec ,,15,-77.007003,31427,1934289487117353510,"{'ios': 'https://dc.lft.to/lastmile_qr_scan', 'android': 'https://dc.lft.to/lastmile_qr_scan'}",38.967492,
WAU / Flower Ave & Division St,44,15,-77.000035,32049,0825faf6-1f3f-11e7-bf6b-3863bb334450,"{'ios': 'https://dc.lft.to/lastmile_qr_scan', 'android': 'https://dc.lft.to/lastmile_qr_scan'}",38.986743,"Montgomery County, MD (South)"
N Howard St & Taney Ave,40,15,-77.110014,31943,cdeeb133-ccd7-418f-a8d7-0b5c5380a8ae,"{'ios': 'https://dc.lft.to/lastmile_qr_scan', 'android': 'https://dc.lft.to/lastmile_qr_scan'}",38.815842,"Alexandria, VA"
Roosevelt Center & Crescent Rd,133,15,-76.878005,32424,6922a398-ec20-493d-a832-5e337cf335f5,"{'ios': 'https://dc.lft.to/lastmile_qr_scan', 'android': 'https://dc.lft.to/lastmile_qr_scan'}",39.00031,Prince George's County
Virginia Tech / University Dr & Potomac Ave,40,19,-77.04851649200613,31983,2087539483195992332,"{'ios': 'https://dc.lft.to/lastmile_qr_scan', 'android': 'https://dc.lft.to/lastmile_qr_scan'}",38.838844754411575,"Alexandria, VA"
Mount Vernon Ave & Four Mile Run Park,40,15,-77.064016,31909,08262494-1f3f-11e7-bf6b-3863bb334450,"{'ios': 'https://dc.lft.to/lastmile_qr_scan', 'android': 'https://dc.lft.to/lastmile_qr_scan'}",38.843422,"Alexandria, VA"
21st & L St NW ,42,16,-77.046567,31140,2061578790793374684,"{'ios': 'https://dc.lft.to/lastmile_qr_scan', 'android': 'https://dc.lft.to/lastmile_qr_scan'}",38.904052,"Washington, DC"
Wheaton Metro / Georgia Ave & Reedie Dr,44,19,-77.05102041363716,32062,08265124-1f3f-11e7-bf6b-3863bb334450,"{'ios': 'https://dc.lft.to/lastmile_qr_scan', 'android': 'https://dc.lft.to/lastmile_qr_scan'}",39.038423828518326,"Montgomery County, MD (South)"
20th & Q St NW,42,27,-77.0450612,31982,2066765243426702154,"{'ios': 'https://dc.lft.to/lastmile_qr_scan', 'android': 'https://dc.lft.to/lastmile_qr_scan'}",38.9110858,"Washington, DC"
Kingman Island/The Fields at RFK,42,19,-76.9678448436025,31716,bed9b757-0df2-4a97-a6ac-415db00e82c8,"{'ios': 'https://dc.lft.to/lastmile_qr_scan', 'android': 'https://dc.lft.to/lastmile_qr_scan'}",38.89595455700754,"Washington, DC"
Army Navy Dr & Fern St,41,15,-77.056873,31936,0a5dbbe0-1325-49af-9fca-f0748ca06dc0,"{'ios': 'https://dc.lft.to/lastmile_qr_scan', 'android': 'https://dc.lft.to/lastmile_qr_scan'}",38.864838,"Arlington, VA"
Columbia Pike & S Orme St,41,8,-77.072296,31066,082569e6-1f3f-11e7-bf6b-3863bb334450,"{'ios': 'https://dc.lft.to/lastmile_qr_scan', 'android': 'https://dc.lft.to/lastmile_qr_scan'}",38.867217,"Arlington, VA"
 Scotts Crossing Rd & Spring Gate Dr,104,11,-77.2110936,32324,2070121870129475816,"{'ios': 'https://dc.lft.to/lastmile_qr_scan', 'android': 'https://dc.lft.to/lastmile_qr_scan'}",38.9270176,"Fairfax, VA"
D St & Maryland Ave NE,42,23,-76.99591577053069,31612,0824a703-1f3f-11e7-bf6b-3863bb334450,"{'ios': 'https://dc.lft.to/lastmile_qr_scan', 'android': 'https://dc.lft.to/lastmile_qr_scan'}",38.89484064247075,"Washington, DC"
Marymount University / Yorktown Blvd & 26th St N,41,15,-77.127776,31977,5eb5b5a7-db69-4d8a-a16a-604678a544b7,"{'ios': 'https://dc.lft.to/lastmile_qr_scan', 'android': 'https://dc.lft.to/lastmile_qr_scan'}",38.904252,"Arlington, VA"
Witter Field,40,16,-77.078791,32101,2064975968599672936,"{'ios': 'https://dc.lft.to/lastmile_qr_scan', 'android': 'https://dc.lft.to/lastmile_qr_scan'}",38.805524,"Alexandria, VA"
Broad Branch Rd & Northampton St NW,42,19,-77.06862643361092,31422,68eaf9f5-7b2d-4f60-9f02-9f5ba1103f80,"{'ios': 'https://dc.lft.to/lastmile_qr_scan', 'android': 'https://dc.lft.to/lastmile_qr_scan'}",38.96577499342219,"Washington, DC"
Montello Ave & Holbrook Terr NE,42,19,-76.986813,31524,a07bd5e0-5136-4285-ae23-54a74124957e,"{'ios': 'https://dc.lft.to/lastmile_qr_scan', 'android': 'https://dc.lft.to/lastmile_qr_scan'}",38.907444,"Washington, DC"
Silver Spring Transit Center - Top Level,44,15,-77.03037142753601,32034,0825b553-1f3f-11e7-bf6b-3863bb334450,"{'ios': 'https://dc.lft.to/lastmile_qr_scan', 'android': 'https://dc.lft.to/lastmile_qr_scan'}",38.99403485060837,"Montgomery County, MD (South)"
Vaden Dr & Royal Victoria Dr/Jim Scott Cmty Ctr,104,11,-77.272999,32261,f08db1df-054a-46c8-a3e1-b349f2a26d5e,"{'ios': 'https://dc.lft.to/lastmile_qr_scan', 'android': 'https://dc.lft.to/lastmile_qr_scan'}",38.873261,"Fairfax, VA"
Commerce St & Fayette St,40,15,-77.052925,31045,08253b95-1f3f-11e7-bf6b-3863bb334450,"{'ios': 'https://dc.lft.to/lastmile_qr_scan', 'android': 'https://dc.lft.to/lastmile_qr_scan'}",38.80563,"Alexandria, VA"
1st & Washington Hospital Center NW,42,15,-77.012457,31507,0825201c-1f3f-11e7-bf6b-3863bb334450,"{'ios': 'https://dc.lft.to/lastmile_qr_scan', 'android': 'https://dc.lft.to/lastmile_qr_scan'}",38.928743,"Washington, DC"
1st & Q St SW,42,15,-77.01191514730453,31676,84a0159b-5f00-417a-8f06-6c7c8437049f,"{'ios': 'https://dc.lft.to/lastmile_qr_scan', 'android': 'https://dc.lft.to/lastmile_qr_scan'}",38.870823939537914,"Washington, DC"
Connecticut Ave & R St NW,42,19,-77.04564,31299,a2507ccc-aca1-48b2-a6a3-a3144ad92d21,"{'ios': 'https://dc.lft.to/lastmile_qr_scan', 'android': 'https://dc.lft.to/lastmile_qr_scan'}",38.912644,"Washington, DC"
Offutt Ln & Chevy Chase Dr,44,11,-77.094589,32029,0825b2e7-1f3f-11e7-bf6b-3863bb334450,"{'ios': 'https://dc.lft.to/lastmile_qr_scan', 'android': 'https://dc.lft.to/lastmile_qr_scan'}",38.977093,"Montgomery County, MD (South)"
Virginia Square Metro / Monroe St & 9th St N,41,19,-77.103148,31024,082520aa-1f3f-11e7-bf6b-3863bb334450,"{'ios': 'https://dc.lft.to/lastmile_qr_scan', 'android': 'https://dc.lft.to/lastmile_qr_scan'}",38.882788,"Arlington, VA"
17th St & Massachusetts Ave NW,42,19,-77.038542,31267,08255063-1f3f-11e7-bf6b-3863bb334450,"{'ios': 'https://dc.lft.to/lastmile_qr_scan', 'android': 'https://dc.lft.to/lastmile_qr_scan'}",38.908568,"Washington, DC"
Frederick Ave & Horners Ln,43,9,-77.145213,32009,08258475-1f3f-11e7-bf6b-3863bb334450,"{'ios': 'https://dc.lft.to/lastmile_qr_scan', 'android': 'https://dc.lft.to/lastmile_qr_scan'}",39.094772,"Montgomery County, MD (North)"
3rd & G St SE,42,20,-77.001828,31625,08251448-1f3f-11e7-bf6b-3863bb334450,"{'ios': 'https://dc.lft.to/lastmile_qr_scan', 'android': 'https://dc.lft.to/lastmile_qr_scan'}",38.881185,"Washington, DC"
5th & Kennedy St NW,42,15,-77.0198142528534,31403,082547de-1f3f-11e7-bf6b-3863bb334450,"{'ios': 'https://dc.lft.to/lastmile_qr_scan', 'android': 'https://dc.lft.to/lastmile_qr_scan'}",38.956555547721955,"Washington, DC"
7th & Monroe St NE,42,15,-76.9961330294609,31534,066fd95e-0d37-4eea-a027-88c04277bb9d,"{'ios': 'https://dc.lft.to/lastmile_qr_scan', 'android': 'https://dc.lft.to/lastmile_qr_scan'}",38.932242581555066,"Washington, DC"
W&OD Trail/Sunset Hills Rd & Isaac Newton Sq,104,19,-77.340281,32220,08263fbd-1f3f-11e7-bf6b-3863bb334450,"{'ios': 'https://dc.lft.to/lastmile_qr_scan', 'android': 'https://dc.lft.to/lastmile_qr_scan'}",38.951419,"Fairfax, VA"
Route 29 & Circle Woods Dr,,11,-77.27153766943553,31389,1892760823152249488,"{'ios': 'https://dc.lft.to/lastmile_qr_scan', 'android': 'https://dc.lft.to/lastmile_qr_scan'}",38.86911419290566,
Langston Blvd & N Adams St,41,15,-77.089006,31030,08252530-1f3f-11e7-bf6b-3863bb334450,"{'ios': 'https://dc.lft.to/lastmile_qr_scan', 'android': 'https://dc.lft.to/lastmile_qr_scan'}",38.89593,"Arlington, VA"
Bladensburg Waterfront Park,133,13,-76.938248,32432,2025978688145375308,"{'ios': 'https://dc.lft.to/lastmile_qr_scan', 'android': 'https://dc.lft.to/lastmile_qr_scan'}",38.934324,Prince George's County
14th & Upshur St NW,42,19,-77.03267812728882,31406,08254943-1f3f-11e7-bf6b-3863bb334450,"{'ios': 'https://dc.lft.to/lastmile_qr_scan', 'android': 'https://dc.lft.to/lastmile_qr_scan'}",38.942475355602845,"Washington, DC"
New Hampshire Ave & 24th St NW,42,19,-77.051084,31275,0825f723-1f3f-11e7-bf6b-3863bb334450,"{'ios': 'https://dc.lft.to/lastmile_qr_scan', 'android': 'https://dc.lft.to/lastmile_qr_scan'}",38.901755,"Washington, DC"
Nannie Helen Burroughs & Minnesota Ave NE,42,11,-76.941877,31704,082480f1-1f3f-11e7-bf6b-3863bb334450,"{'ios': 'https://dc.lft.to/lastmile_qr_scan', 'android': 'https://dc.lft.to/lastmile_qr_scan'}",38.901385,"Washington, DC"
Lincoln Park / 13th & East Capitol St NE ,42,33,-76.988355,31619,0824c229-1f3f-11e7-bf6b-3863bb334450,"{'ios': 'https://dc.lft.to/lastmile_qr_scan', 'android': 'https://dc.lft.to/lastmile_qr_scan'}",38.890461,"Washington, DC"
61st St & Banks Pl NE,42,19,-76.913563,31714,08263cab-1f3f-11e7-bf6b-3863bb334450,"{'ios': 'https://dc.lft.to/lastmile_qr_scan', 'android': 'https://dc.lft.to/lastmile_qr_scan'}",38.891805,"Washington, DC"
Rhode Island Ave Metro,42,19,-76.995876,31516,0825e3b0-1f3f-11e7-bf6b-3863bb334450,"{'ios': 'https://dc.lft.to/lastmile_qr_scan', 'android': 'https://dc.lft.to/lastmile_qr_scan'}",38.920682,"Washington, DC"
Livingston Rd & 3rd St SE,42,15,-77.00223,31818,d72b1790-0fea-4af8-9d2a-fd4d4db24d1a,"{'ios': 'https://dc.lft.to/lastmile_qr_scan', 'android': 'https://dc.lft.to/lastmile_qr_scan'}",38.82373,"Washington, DC"
Waterfront Park,42,19,-77.0207878947258,31673,94b1507c-7f76-483c-b06a-a4131e0b5970,"{'ios': 'https://dc.lft.to/lastmile_qr_scan', 'android': 'https://dc.lft.to/lastmile_qr_scan'}",38.874820772513424,"Washington, DC"
Franconia-Springfield Metro North,,19,-77.168902,32289,1917259666206632502,"{'ios': 'https://dc.lft.to/lastmile_qr_scan', 'android': 'https://dc.lft.to/lastmile_qr_scan'}",38.766946,
4th & Florida Ave NE,42,19,-77.00069814920425,31532,21cdfe0d-71ad-4302-a003-3cfc0d355af9,"{'ios': 'https://dc.lft.to/lastmile_qr_scan', 'android': 'https://dc.lft.to/lastmile_qr_scan'}",38.90731645057457,"Washington, DC"
New Dominion Pkwy & Fountain Dr,104,11,-77.356324,32212,08263959-1f3f-11e7-bf6b-3863bb334450,"{'ios': 'https://dc.lft.to/lastmile_qr_scan', 'android': 'https://dc.lft.to/lastmile_qr_scan'}",38.960574,"Fairfax, VA"
Braddock Rd Metro North,40,16,-77.052808,31047,08253c6b-1f3f-11e7-bf6b-3863bb334450,"{'ios': 'https://dc.lft.to/lastmile_qr_scan', 'android': 'https://dc.lft.to/lastmile_qr_scan'}",38.814577,"Alexandria, VA"
Commonwealth and Reed,40,16,-77.05727398395538,31960,3af8c81c-b8d8-4af7-afe9-332a2cac4672,"{'ios': 'https://dc.lft.to/lastmile_qr_scan', 'android': 'https://dc.lft.to/lastmile_qr_scan'}",38.8368376462948,"Alexandria, VA"
Spring Hill Metro,104,15,-77.240654,32200,0826345e-1f3f-11e7-bf6b-3863bb334450,"{'ios': 'https://dc.lft.to/lastmile_qr_scan', 'android': 'https://dc.lft.to/lastmile_qr_scan'}",38.929261,"Fairfax, VA"
John McCormack Rd NE,42,19,-76.997226,31528,8bbafd08-edb1-426d-94f4-c7b7d9be34dd,"{'ios': 'https://dc.lft.to/lastmile_qr_scan', 'android': 'https://dc.lft.to/lastmile_qr_scan'}",38.938889,"Washington, DC"
Route 29 & Bisvey Dr,104,12,-77.195847,32267,f0101beb-a103-46e4-93f5-c7880b85411b,"{'ios': 'https://dc.lft.to/lastmile_qr_scan', 'android': 'https://dc.lft.to/lastmile_qr_scan'}",38.876912,"Fairfax, VA"
Walker Mill Road/ Walker Mill Regional Park ,133,15,-76.868767,32428,1999699654561182176,"{'ios': 'https://dc.lft.to/lastmile_qr_scan', 'android': 'https://dc.lft.to/lastmile_qr_scan'}",38.875772,Prince George's County
St Asaph & Pendleton St,40,15,-77.0446327328682,31043,08253a4b-1f3f-11e7-bf6b-3863bb334450,"{'ios': 'https://dc.lft.to/lastmile_qr_scan', 'android': 'https://dc.lft.to/lastmile_qr_scan'}",38.81074147938705,"Alexandria, VA"
1st & D St SE,42,19,-77.005965,31643,08263aa1-1f3f-11e7-bf6b-3863bb334450,"{'ios': 'https://dc.lft.to/lastmile_qr_scan', 'android': 'https://dc.lft.to/lastmile_qr_scan'}",38.884916,"Washington, DC"
Shady Grove Metro West,43,19,-77.166093,32045,0825e56c-1f3f-11e7-bf6b-3863bb334450,"{'ios': 'https://dc.lft.to/lastmile_qr_scan', 'android': 'https://dc.lft.to/lastmile_qr_scan'}",39.119765,"Montgomery County, MD (North)"
Martha Custis Dr & Lyons Ln,40,15,-77.082124,31199,2077910615087598254,"{'ios': 'https://dc.lft.to/lastmile_qr_scan', 'android': 'https://dc.lft.to/lastmile_qr_scan'}",38.841871,"Alexandria, VA"
S Randolph St & Campbell Ave,41,15,-77.08865851163864,31076,0825e4d5-1f3f-11e7-bf6b-3863bb334450,"{'ios': 'https://dc.lft.to/lastmile_qr_scan', 'android': 'https://dc.lft.to/lastmile_qr_scan'}",38.84065400672152,"Arlington, VA"
10th St & L'Enfant Plaza SW,42,23,-77.02601015567778,31287,08261d9d-1f3f-11e7-bf6b-3863bb334450,"{'ios': 'https://dc.lft.to/lastmile_qr_scan', 'android': 'https://dc.lft.to/lastmile_qr_scan'}",38.88432272414662,"Washington, DC"
Bethesda Metro / Wisconsin Ave & Old Georgetown Rd,44,12,-77.094537,32048,0825f2b1-1f3f-11e7-bf6b-3863bb334450,"{'ios': 'https://dc.lft.to/lastmile_qr_scan', 'android': 'https://dc.lft.to/lastmile_qr_scan'}",38.984691,"Montgomery County, MD (South)"
Columbus Circle / Union Station,42,55,-77.00493,31623,0824d0c6-1f3f-11e7-bf6b-3863bb334450,"{'ios': 'https://dc.lft.to/lastmile_qr_scan', 'android': 'https://dc.lft.to/lastmile_qr_scan'}",38.89696,"Washington, DC"
8th & H St NE,42,19,-76.99489653110504,31661,fbbeab20-556d-4275-98a9-f84d316c157f,"{'ios': 'https://dc.lft.to/lastmile_qr_scan', 'android': 'https://dc.lft.to/lastmile_qr_scan'}",38.899941626884754,"Washington, DC"
8th & D St NW,42,24,-77.02324,31270,08256ac9-1f3f-11e7-bf6b-3863bb334450,"{'ios': 'https://dc.lft.to/lastmile_qr_scan', 'android': 'https://dc.lft.to/lastmile_qr_scan'}",38.894851,"Washington, DC"
Soapstone Dr Convenience Center,104,12,-77.345874,32253,85c2fb24-d241-4550-8968-2cdf85462af7,"{'ios': 'https://dc.lft.to/lastmile_qr_scan', 'android': 'https://dc.lft.to/lastmile_qr_scan'}",38.93051,"Fairfax, VA"
Connecticut Ave & McKinley St NW,42,19,-77.07513481378555,31315,0825fbd3-1f3f-11e7-bf6b-3863bb334450,"{'ios': 'https://dc.lft.to/lastmile_qr_scan', 'android': 'https://dc.lft.to/lastmile_qr_scan'}",38.96454350924588,"Washington, DC"
Columbia Pike & S Highland St,41,12,-77.089133,31096,08260472-1f3f-11e7-bf6b-3863bb334450,"{'ios': 'https://dc.lft.to/lastmile_qr_scan', 'android': 'https://dc.lft.to/lastmile_qr_scan'}",38.862398,"Arlington, VA"
7th & F St NW / National Portrait Gallery,42,35,-77.022216,31232,0824c772-1f3f-11e7-bf6b-3863bb334450,"{'ios': 'https://dc.lft.to/lastmile_qr_scan', 'android': 'https://dc.lft.to/lastmile_qr_scan'}",38.897324,"Washington, DC"
New Hampshire & Kirklynn Ave,44,15,-76.988422,32061,082650b1-1f3f-11e7-bf6b-3863bb334450,"{'ios': 'https://dc.lft.to/lastmile_qr_scan', 'android': 'https://dc.lft.to/lastmile_qr_scan'}",38.988101,"Montgomery County, MD (South)"
Vantage Hill Rd & Wainwright Dr,104,12,-77.348487,32244,8d68e4db-0bc9-440a-9b27-5d34ed1b93c9,"{'ios': 'https://dc.lft.to/lastmile_qr_scan', 'android': 'https://dc.lft.to/lastmile_qr_scan'}",38.9667,"Fairfax, VA"
Langston Blvd & N Woodstock St,41,19,-77.118009,31900,082614e4-1f3f-11e7-bf6b-3863bb334450,"{'ios': 'https://dc.lft.to/lastmile_qr_scan', 'android': 'https://dc.lft.to/lastmile_qr_scan'}",38.898301,"Arlington, VA"
5th & F St NW,42,31,-77.019347,31620,0824a28b-1f3f-11e7-bf6b-3863bb334450,"{'ios': 'https://dc.lft.to/lastmile_qr_scan', 'android': 'https://dc.lft.to/lastmile_qr_scan'}",38.897222,"Washington, DC"
United Medical Center,42,19,-76.983144,31823,5f0f9566-90d4-431e-9b6d-994e26d20ec6,"{'ios': 'https://dc.lft.to/lastmile_qr_scan', 'android': 'https://dc.lft.to/lastmile_qr_scan'}",38.835737,"Washington, DC"
M St & New Jersey Ave SE,42,17,-77.00416892766953,31208,082486f0-1f3f-11e7-bf6b-3863bb334450,"{'ios': 'https://dc.lft.to/lastmile_qr_scan', 'android': 'https://dc.lft.to/lastmile_qr_scan'}",38.8762192324865,"Washington, DC"
14th & R St NW,42,19,-77.032008,31202,0824799f-1f3f-11e7-bf6b-3863bb334450,"{'ios': 'https://dc.lft.to/lastmile_qr_scan', 'android': 'https://dc.lft.to/lastmile_qr_scan'}",38.913046,"Washington, DC"
Minnesota Ave Metro/DOES,42,15,-76.947446,31703,0824806c-1f3f-11e7-bf6b-3863bb334450,"{'ios': 'https://dc.lft.to/lastmile_qr_scan', 'android': 'https://dc.lft.to/lastmile_qr_scan'}",38.897063,"Washington, DC"
23rd & M St NW,42,19,-77.050264,31128,5b745524-d0d3-4197-8c69-0ad4e5761883,"{'ios': 'https://dc.lft.to/lastmile_qr_scan', 'android': 'https://dc.lft.to/lastmile_qr_scan'}",38.905303,"Washington, DC"
Columbia Pike & S Walter Reed Dr,41,8,-77.086599,31067,08256fcd-1f3f-11e7-bf6b-3863bb334450,"{'ios': 'https://dc.lft.to/lastmile_qr_scan', 'android': 'https://dc.lft.to/lastmile_qr_scan'}",38.862478,"Arlington, VA"
Lake Newport Rd and Autumn Ridge Cir,104,12,-77.35345423221588,32251,29f174dd-e7bc-4329-a570-0220f0d1be84,"{'ios': 'https://dc.lft.to/lastmile_qr_scan', 'android': 'https://dc.lft.to/lastmile_qr_scan'}",38.97850255151454,"Fairfax, VA"
Georgia Ave & Dahlia St NW,42,19,-77.026747,31425,f8b331c6-d208-4b17-b788-1a17d2520c40,"{'ios': 'https://dc.lft.to/lastmile_qr_scan', 'android': 'https://dc.lft.to/lastmile_qr_scan'}",38.976061,"Washington, DC"
15th & K St NW,42,27,-77.03353,31254,08253b2b-1f3f-11e7-bf6b-3863bb334450,"{'ios': 'https://dc.lft.to/lastmile_qr_scan', 'android': 'https://dc.lft.to/lastmile_qr_scan'}",38.902,"Washington, DC"
Rhode Island Ave & 39th St / Brentwood Arts Exchange,133,15,-76.955047,32413,199df30f-328b-48af-8627-952bd9d6fe7c,"{'ios': 'https://dc.lft.to/lastmile_qr_scan', 'android': 'https://dc.lft.to/lastmile_qr_scan'}",38.939271,Prince George's County
White Oak Rec Center,44,15,-76.9757228,32087,2213781a-5c69-43eb-9b33-346d61e7e1ba,"{'ios': 'https://dc.lft.to/lastmile_qr_scan', 'android': 'https://dc.lft.to/lastmile_qr_scan'}",39.0461435,"Montgomery County, MD (South)"
North Shore Dr & Village Rd,104,11,-77.340787,32223,0826533b-1f3f-11e7-bf6b-3863bb334450,"{'ios': 'https://dc.lft.to/lastmile_qr_scan', 'android': 'https://dc.lft.to/lastmile_qr_scan'}",38.970412,"Fairfax, VA"
Georgia Ave & Fairmont St NW,42,15,-77.02232748270035,31207,0824844b-1f3f-11e7-bf6b-3863bb334450,"{'ios': 'https://dc.lft.to/lastmile_qr_scan', 'android': 'https://dc.lft.to/lastmile_qr_scan'}",38.924784585266956,"Washington, DC"
Windham Ln & Amherst Ave,44,15,-77.04735,32066,082652d2-1f3f-11e7-bf6b-3863bb334450,"{'ios': 'https://dc.lft.to/lastmile_qr_scan', 'android': 'https://dc.lft.to/lastmile_qr_scan'}",39.032029,"Montgomery County, MD (South)"
18th & M St NW,42,27,-77.04177886247635,31221,08249ef2-1f3f-11e7-bf6b-3863bb334450,"{'ios': 'https://dc.lft.to/lastmile_qr_scan', 'android': 'https://dc.lft.to/lastmile_qr_scan'}",38.90506687455313,"Washington, DC"
24th St & Rhode Island Ave NE,42,15,-76.97285145521163,31543,77cd13d5-f671-437a-a59c-bcc74c6b211e,"{'ios': 'https://dc.lft.to/lastmile_qr_scan', 'android': 'https://dc.lft.to/lastmile_qr_scan'}",38.93077415308313,"Washington, DC"
King St & N Pitt St,40,11,-77.04467564821243,31968,e84a9c46-89ce-45dc-866f-fe8cbc50e88e,"{'ios': 'https://dc.lft.to/lastmile_qr_scan', 'android': 'https://dc.lft.to/lastmile_qr_scan'}",38.8048011316311,"Alexandria, VA"
Fairfax Dr & N Taylor St,41,11,-77.112754,31049,8dfb34e2-7f75-4359-a374-5bf5e86c4793,"{'ios': 'https://dc.lft.to/lastmile_qr_scan', 'android': 'https://dc.lft.to/lastmile_qr_scan'}",38.882425,"Arlington, VA"
South Lakes Dr and Reston Pkwy,104,12,-77.362304,32247,d3cf2811-ca2e-4d2c-9843-8a90049b7b80,"{'ios': 'https://dc.lft.to/lastmile_qr_scan', 'android': 'https://dc.lft.to/lastmile_qr_scan'}",38.94335,"Fairfax, VA"
13th & E St SE,42,15,-76.98790669441223,31607,082494e7-1f3f-11e7-bf6b-3863bb334450,"{'ios': 'https://dc.lft.to/lastmile_qr_scan', 'android': 'https://dc.lft.to/lastmile_qr_scan'}",38.88291548476762,"Washington, DC"
Hilltop Rd & Willowmere Dr ,,11,-77.241518,32297,1957750905852681124,"{'ios': 'https://dc.lft.to/lastmile_qr_scan', 'android': 'https://dc.lft.to/lastmile_qr_scan'}",38.876903,
Seatrend Way & Topsails Ln,,12,-77.160014,32288,1917259953969440770,"{'ios': 'https://dc.lft.to/lastmile_qr_scan', 'android': 'https://dc.lft.to/lastmile_qr_scan'}",38.775639,
Connecticut Ave & Chevy Chase Lake Dr,44,15,-77.076986,32051,08261407-1f3f-11e7-bf6b-3863bb334450,"{'ios': 'https://dc.lft.to/lastmile_qr_scan', 'android': 'https://dc.lft.to/lastmile_qr_scan'}",38.994113,"Montgomery County, MD (South)"
37th & O St NW / Georgetown University,42,23,-77.07166,31236,0824cdb0-1f3f-11e7-bf6b-3863bb334450,"{'ios': 'https://dc.lft.to/lastmile_qr_scan', 'android': 'https://dc.lft.to/lastmile_qr_scan'}",38.907837,"Washington, DC"
Western Ave & Pinehurst Cir NW ,,15,-77.066409,31428,1939176485434179842,"{'ios': 'https://dc.lft.to/lastmile_qr_scan', 'android': 'https://dc.lft.to/lastmile_qr_scan'}",38.975739,
S Wakefield St & 28th St S,41,15,-77.098093,31972,7af26d39-a3b4-4fb3-b5b2-3acd415b9bea,"{'ios': 'https://dc.lft.to/lastmile_qr_scan', 'android': 'https://dc.lft.to/lastmile_qr_scan'}",38.84404,"Arlington, VA"
Powhatan St & Bashford Ln,40,15,-77.047783,31915,082630e2-1f3f-11e7-bf6b-3863bb334450,"{'ios': 'https://dc.lft.to/lastmile_qr_scan', 'android': 'https://dc.lft.to/lastmile_qr_scan'}",38.818748,"Alexandria, VA"
44th St & New Mexico Ave NW,,19,-77.086263,31391,1877753940179542324,"{'ios': 'https://dc.lft.to/lastmile_qr_scan', 'android': 'https://dc.lft.to/lastmile_qr_scan'}",38.933899,
15th & P St NW,42,19,-77.03442692756653,31201,0824791a-1f3f-11e7-bf6b-3863bb334450,"{'ios': 'https://dc.lft.to/lastmile_qr_scan', 'android': 'https://dc.lft.to/lastmile_qr_scan'}",38.90980062655191,"Washington, DC"
New Hampshire Ave & East-West Hwy,133,15,-76.995227,32412,ae00650a-be2d-4912-8f0d-8338b3754eed,"{'ios': 'https://dc.lft.to/lastmile_qr_scan', 'android': 'https://dc.lft.to/lastmile_qr_scan'}",38.974205,Prince George's County
14th & Quincy St NW,42,19,-77.032688,31401,08247c29-1f3f-11e7-bf6b-3863bb334450,"{'ios': 'https://dc.lft.to/lastmile_qr_scan', 'android': 'https://dc.lft.to/lastmile_qr_scan'}",38.938024,"Washington, DC"
Queens Chapel & Hamilton St,133,15,-76.9595,32410,27d919c7-7fda-41d1-9c05-2f537d5c4ce2,"{'ios': 'https://dc.lft.to/lastmile_qr_scan', 'android': 'https://dc.lft.to/lastmile_qr_scan'}",38.9546,Prince George's County
Library St & Freedom Dr,104,15,-77.358741,32216,08263b6d-1f3f-11e7-bf6b-3863bb334450,"{'ios': 'https://dc.lft.to/lastmile_qr_scan', 'android': 'https://dc.lft.to/lastmile_qr_scan'}",38.959633,"Fairfax, VA"
New Hampshire & Gallatin St NW,42,19,-77.012808,31418,89263cc9-13f6-4185-b315-5164c9bb930e,"{'ios': 'https://dc.lft.to/lastmile_qr_scan', 'android': 'https://dc.lft.to/lastmile_qr_scan'}",38.951596,"Washington, DC"
Barcroft Community Center,41,11,-77.1009886264801,31033,08251c45-1f3f-11e7-bf6b-3863bb334450,"{'ios': 'https://dc.lft.to/lastmile_qr_scan', 'android': 'https://dc.lft.to/lastmile_qr_scan'}",38.85033657788445,"Arlington, VA"
Montgomery Ave & Waverly St ,44,11,-77.09221,32003,0825756e-1f3f-11e7-bf6b-3863bb334450,"{'ios': 'https://dc.lft.to/lastmile_qr_scan', 'android': 'https://dc.lft.to/lastmile_qr_scan'}",38.983838,"Montgomery County, MD (South)"
Ohio Dr & West Basin Dr SW / MLK & FDR Memorials,42,31,-77.04657,31240,0824e68d-1f3f-11e7-bf6b-3863bb334450,"{'ios': 'https://dc.lft.to/lastmile_qr_scan', 'android': 'https://dc.lft.to/lastmile_qr_scan'}",38.88412,"Washington, DC"
Benning Branch Library,42,11,-76.947974,31705,08249b10-1f3f-11e7-bf6b-3863bb334450,"{'ios': 'https://dc.lft.to/lastmile_qr_scan', 'android': 'https://dc.lft.to/lastmile_qr_scan'}",38.894,"Washington, DC"
1st & N St SE,42,39,-77.00575411319733,31209,082484cf-1f3f-11e7-bf6b-3863bb334450,"{'ios': 'https://dc.lft.to/lastmile_qr_scan', 'android': 'https://dc.lft.to/lastmile_qr_scan'}",38.875022735559995,"Washington, DC"
4th & East Capitol St NE,42,11,-77.000349,31618,0824c1a1-1f3f-11e7-bf6b-3863bb334450,"{'ios': 'https://dc.lft.to/lastmile_qr_scan', 'android': 'https://dc.lft.to/lastmile_qr_scan'}",38.889955,"Washington, DC"
18th St & Belmont Rd NW,42,16,-77.042071,32140,2072399988132893690,"{'ios': 'https://dc.lft.to/lastmile_qr_scan', 'android': 'https://dc.lft.to/lastmile_qr_scan'}",38.920925,"Washington, DC"
Maine Ave & Water St SW,42,19,-77.02094480395317,31674,a41e5bd2-b599-4c47-a36f-31ffa2e2dd0b,"{'ios': 'https://dc.lft.to/lastmile_qr_scan', 'android': 'https://dc.lft.to/lastmile_qr_scan'}",38.87674677186661,"Washington, DC"
Trinidad Rec Center,42,19,-76.983221,31525,d0a82ee8-e718-4598-aa5e-dda9292c248c,"{'ios': 'https://dc.lft.to/lastmile_qr_scan', 'android': 'https://dc.lft.to/lastmile_qr_scan'}",38.906299,"Washington, DC"
Madison St & Fairfax St,40,15,-77.040691,31918,08264173-1f3f-11e7-bf6b-3863bb334450,"{'ios': 'https://dc.lft.to/lastmile_qr_scan', 'android': 'https://dc.lft.to/lastmile_qr_scan'}",38.812351,"Alexandria, VA"
Prince St & Union St,40,19,-77.040363,31041,08253976-1f3f-11e7-bf6b-3863bb334450,"{'ios': 'https://dc.lft.to/lastmile_qr_scan', 'android': 'https://dc.lft.to/lastmile_qr_scan'}",38.803124,"Alexandria, VA"
Traville Gateway Dr & Gudelsky Dr,43,19,-77.202501,32005,08257f71-1f3f-11e7-bf6b-3863bb334450,"{'ios': 'https://dc.lft.to/lastmile_qr_scan', 'android': 'https://dc.lft.to/lastmile_qr_scan'}",39.093783,"Montgomery County, MD (North)"
Chain Bridge Rd & Anderson Rd,,11,-77.204762,32298,1957757292469049786,"{'ios': 'https://dc.lft.to/lastmile_qr_scan', 'android': 'https://dc.lft.to/lastmile_qr_scan'}",38.925572,
Potomac Ave & 35th St S,41,15,-77.050537,31052,0824e2e3-1f3f-11e7-bf6b-3863bb334450,"{'ios': 'https://dc.lft.to/lastmile_qr_scan', 'android': 'https://dc.lft.to/lastmile_qr_scan'}",38.844015,"Arlington, VA"
S Clark St & 33rd St,41,12,-77.051956,31944,e2a96f4c-801e-4cf8-be0f-f767a5d8ca1b,"{'ios': 'https://dc.lft.to/lastmile_qr_scan', 'android': 'https://dc.lft.to/lastmile_qr_scan'}",38.845028,"Arlington, VA"
39th & Veazey St NW,42,15,-77.077078,31308,082544b7-1f3f-11e7-bf6b-3863bb334450,"{'ios': 'https://dc.lft.to/lastmile_qr_scan', 'android': 'https://dc.lft.to/lastmile_qr_scan'}",38.943837,"Washington, DC"
1st & M St NE,42,15,-77.005483,31603,0824927c-1f3f-11e7-bf6b-3863bb334450,"{'ios': 'https://dc.lft.to/lastmile_qr_scan', 'android': 'https://dc.lft.to/lastmile_qr_scan'}",38.905697,"Washington, DC"
16th & Bangor St SE,42,15,-76.983585,31829,7c790f6e-7889-4c3c-97d6-ffd37e68bb2d,"{'ios': 'https://dc.lft.to/lastmile_qr_scan', 'android': 'https://dc.lft.to/lastmile_qr_scan'}",38.86044,"Washington, DC"
North Capitol & R St NE,42,15,-77.008775,31527,2a76806e-32b4-4ec6-a851-f73ba7dafda1,"{'ios': 'https://dc.lft.to/lastmile_qr_scan', 'android': 'https://dc.lft.to/lastmile_qr_scan'}",38.91256,"Washington, DC"
Arlington Blvd & Fairfax Dr,41,16,-77.08426237106323,31940,abd8bd04-94ec-4818-baf5-7f79742e982c,"{'ios': 'https://dc.lft.to/lastmile_qr_scan', 'android': 'https://dc.lft.to/lastmile_qr_scan'}",38.88625606692058,"Arlington, VA"
Georgia Ave & Kennedy St NW,42,19,-77.02791,31415,568a84a6-8911-48aa-8ad4-9a1b46564e9d,"{'ios': 'https://dc.lft.to/lastmile_qr_scan', 'android': 'https://dc.lft.to/lastmile_qr_scan'}",38.95674,"Washington, DC"
N Pershing Dr & N George Mason Dr,41,11,-77.107906,31069,082572b6-1f3f-11e7-bf6b-3863bb334450,"{'ios': 'https://dc.lft.to/lastmile_qr_scan', 'android': 'https://dc.lft.to/lastmile_qr_scan'}",38.871822,"Arlington, VA"
10th St & Spring Rd NW,42,15,-77.027163,31426,63fa246c-6bed-41f0-97eb-d2d7888c1db0,"{'ios': 'https://dc.lft.to/lastmile_qr_scan', 'android': 'https://dc.lft.to/lastmile_qr_scan'}",38.936228,"Washington, DC"
Largo Town Center Metro,133,17,-76.844604,32401,29b65d73-fc99-42e3-9007-2175402a5c56,"{'ios': 'https://dc.lft.to/lastmile_qr_scan', 'android': 'https://dc.lft.to/lastmile_qr_scan'}",38.899811,Prince George's County
Michigan Ave & Allison St NE,,15,-76.978783,31544,1934706002043462112,"{'ios': 'https://dc.lft.to/lastmile_qr_scan', 'android': 'https://dc.lft.to/lastmile_qr_scan'}",38.945068,
Reston YMCA,104,15,-77.368416,32219,08263f4a-1f3f-11e7-bf6b-3863bb334450,"{'ios': 'https://dc.lft.to/lastmile_qr_scan', 'android': 'https://dc.lft.to/lastmile_qr_scan'}",38.955314,"Fairfax, VA"
W St & Shannon Pl SE,42,12,-76.990779,31808,2057213452968541050,"{'ios': 'https://dc.lft.to/lastmile_qr_scan', 'android': 'https://dc.lft.to/lastmile_qr_scan'}",38.865404,"Washington, DC"
Wilson Blvd & N Edgewood St,41,15,-77.09186241030693,31019,0824f3d6-1f3f-11e7-bf6b-3863bb334450,"{'ios': 'https://dc.lft.to/lastmile_qr_scan', 'android': 'https://dc.lft.to/lastmile_qr_scan'}",38.889396070923496,"Arlington, VA"
48th Pl & MacArthur Blvd NW,42,15,-77.095825,31322,e07eed7c-2d2a-4f13-aff7-2be6500958f7,"{'ios': 'https://dc.lft.to/lastmile_qr_scan', 'android': 'https://dc.lft.to/lastmile_qr_scan'}",38.917105,"Washington, DC"
MBT & Bryant St NE,42,19,-76.9960230588913,31531,0627dc3c-5c62-4ab1-a6f0-3635c6f80d23,"{'ios': 'https://dc.lft.to/lastmile_qr_scan', 'android': 'https://dc.lft.to/lastmile_qr_scan'}",38.92240364115446,"Washington, DC"
Amherst Ave & Elkins St,44,15,-77.047788,32063,0826518d-1f3f-11e7-bf6b-3863bb334450,"{'ios': 'https://dc.lft.to/lastmile_qr_scan', 'android': 'https://dc.lft.to/lastmile_qr_scan'}",39.044887,"Montgomery County, MD (South)"
2nd St & Seaton Pl NE,42,19,-77.00356006622314,31522,0826005e-1f3f-11e7-bf6b-3863bb334450,"{'ios': 'https://dc.lft.to/lastmile_qr_scan', 'android': 'https://dc.lft.to/lastmile_qr_scan'}",38.914751108831155,"Washington, DC"
King Farm Blvd & Piccard Dr,43,15,-77.182669,32038,0825b7cc-1f3f-11e7-bf6b-3863bb334450,"{'ios': 'https://dc.lft.to/lastmile_qr_scan', 'android': 'https://dc.lft.to/lastmile_qr_scan'}",39.110314,"Montgomery County, MD (North)"
Montgomery College / W Campus Dr & Mannakee St,43,21,-77.159048,32023,0825aa94-1f3f-11e7-bf6b-3863bb334450,"{'ios': 'https://dc.lft.to/lastmile_qr_scan', 'android': 'https://dc.lft.to/lastmile_qr_scan'}",39.095661,"Montgomery County, MD (North)"
New York Ave & Hecht Ave NE,42,23,-76.983683,31518,0826132d-1f3f-11e7-bf6b-3863bb334450,"{'ios': 'https://dc.lft.to/lastmile_qr_scan', 'android': 'https://dc.lft.to/lastmile_qr_scan'}",38.915604,"Washington, DC"
Nebraska & Utah Ave NW,42,16,-77.060662,31730,2084992700567684030,"{'ios': 'https://dc.lft.to/lastmile_qr_scan', 'android': 'https://dc.lft.to/lastmile_qr_scan'}",38.967291,"Washington, DC"
Madron Ln & Bermudez Ct,104,12,-77.221807,32271,83fa4699-b2ee-4f14-af3b-167f34a62fb4,"{'ios': 'https://dc.lft.to/lastmile_qr_scan', 'android': 'https://dc.lft.to/lastmile_qr_scan'}",38.904415,"Fairfax, VA"
Baltimore Avenue and Hotel Drive at UMD,133,15,-76.936073,32431,2007431383556444258,"{'ios': 'https://dc.lft.to/lastmile_qr_scan', 'android': 'https://dc.lft.to/lastmile_qr_scan'}",38.986639,Prince George's County
13th & U St NW,42,19,-77.0296311378479,31132,732103a1-eedd-4044-afa6-67b2d192ff22,"{'ios': 'https://dc.lft.to/lastmile_qr_scan', 'android': 'https://dc.lft.to/lastmile_qr_scan'}",38.91693645323652,"Washington, DC"
Northwestern High School,133,15,-76.952199,32411,3dd9e864-a5fc-4c27-b18e-325226089293,"{'ios': 'https://dc.lft.to/lastmile_qr_scan', 'android': 'https://dc.lft.to/lastmile_qr_scan'}",38.975505,Prince George's County
Independence Ave & L'Enfant Plaza SW/DOE,42,23,-77.026141,31633,08256e7b-1f3f-11e7-bf6b-3863bb334450,"{'ios': 'https://dc.lft.to/lastmile_qr_scan', 'android': 'https://dc.lft.to/lastmile_qr_scan'}",38.887332,"Washington, DC"
Pimmit Dr & Idyl Ln,104,12,-77.207261,32264,4b55ad18-eb2e-47b5-aaeb-aefd6ad856fd,"{'ios': 'https://dc.lft.to/lastmile_qr_scan', 'android': 'https://dc.lft.to/lastmile_qr_scan'}",38.897692,"Fairfax, VA"
20th St & Columbia Rd NW,42,19,-77.045469,31133,7346145e-f487-4f07-acb8-ed3e0b8b56bb,"{'ios': 'https://dc.lft.to/lastmile_qr_scan', 'android': 'https://dc.lft.to/lastmile_qr_scan'}",38.918103,"Washington, DC"
Virginia Ave & 25th St NW,42,19,-77.05305218696594,31297,bce02846-6f5e-466a-a643-50534a119533,"{'ios': 'https://dc.lft.to/lastmile_qr_scan', 'android': 'https://dc.lft.to/lastmile_qr_scan'}",38.89846038350939,"Washington, DC"
Arlington National Cemetery,41,19,-77.065803,31978,af5c5675-452b-4e1f-9d9f-7f4a0c50388d,"{'ios': 'https://dc.lft.to/lastmile_qr_scan', 'android': 'https://dc.lft.to/lastmile_qr_scan'}",38.884533,"Arlington, VA"
Clarendon Blvd & N Fillmore St,41,15,-77.09308,31021,0824fd71-1f3f-11e7-bf6b-3863bb334450,"{'ios': 'https://dc.lft.to/lastmile_qr_scan', 'android': 'https://dc.lft.to/lastmile_qr_scan'}",38.8881,"Arlington, VA"
Jones Branch & Westbranch Dr,104,13,-77.219261,32206,082636d5-1f3f-11e7-bf6b-3863bb334450,"{'ios': 'https://dc.lft.to/lastmile_qr_scan', 'android': 'https://dc.lft.to/lastmile_qr_scan'}",38.931911,"Fairfax, VA"
21st St & Pennsylvania Ave NW,42,19,-77.046564,31252,0825388d-1f3f-11e7-bf6b-3863bb334450,"{'ios': 'https://dc.lft.to/lastmile_qr_scan', 'android': 'https://dc.lft.to/lastmile_qr_scan'}",38.901539,"Washington, DC"
14th & D St SE,42,19,-76.9863852,31663,55fc40ce-5be9-4e45-9c84-daacced3c852,"{'ios': 'https://dc.lft.to/lastmile_qr_scan', 'android': 'https://dc.lft.to/lastmile_qr_scan'}",38.8840581,"Washington, DC"
Bethesda Ave & Arlington Rd,44,19,-77.097426,32002,0825738d-1f3f-11e7-bf6b-3863bb334450,"{'ios': 'https://dc.lft.to/lastmile_qr_scan', 'android': 'https://dc.lft.to/lastmile_qr_scan'}",38.981103,"Montgomery County, MD (South)"
Eastern Market / 7th & North Carolina Ave SE,42,15,-76.996806,31610,08249a1c-1f3f-11e7-bf6b-3863bb334450,"{'ios': 'https://dc.lft.to/lastmile_qr_scan', 'android': 'https://dc.lft.to/lastmile_qr_scan'}",38.886952,"Washington, DC"
40th Ave & Bladensburg Rd,133,15,-76.949287,32427,1999643103701119546,"{'ios': 'https://dc.lft.to/lastmile_qr_scan', 'android': 'https://dc.lft.to/lastmile_qr_scan'}",38.935388,Prince George's County
Mount Vernon Ave & E Nelson Ave,40,16,-77.057619,31085,0825f8da-1f3f-11e7-bf6b-3863bb334450,"{'ios': 'https://dc.lft.to/lastmile_qr_scan', 'android': 'https://dc.lft.to/lastmile_qr_scan'}",38.820064,"Alexandria, VA"
Radford & Osage St,40,11,-77.086061,31908,08261ee4-1f3f-11e7-bf6b-3863bb334450,"{'ios': 'https://dc.lft.to/lastmile_qr_scan', 'android': 'https://dc.lft.to/lastmile_qr_scan'}",38.828471,"Alexandria, VA"
7th & S St NW,42,19,-77.02159523963928,31130,4f9000ec-e47e-494e-9b49-61e95b5a6f03,"{'ios': 'https://dc.lft.to/lastmile_qr_scan', 'android': 'https://dc.lft.to/lastmile_qr_scan'}",38.914173639930105,"Washington, DC"
Columbia Pike & S Greenbrier St,41,15,-77.118106,31945,f0d7675e-2ce0-41e7-94f5-28ca712fa456,"{'ios': 'https://dc.lft.to/lastmile_qr_scan', 'android': 'https://dc.lft.to/lastmile_qr_scan'}",38.854019,"Arlington, VA"
Whitehaven Pkwy & Foxhall Rd NW / GWU Mt. Vernon,42,19,-77.0909109,31390,55d4e20d-6b27-485e-8115-4046ac2313ea,"{'ios': 'https://dc.lft.to/lastmile_qr_scan', 'android': 'https://dc.lft.to/lastmile_qr_scan'}",38.916501,"Washington, DC"
13th St & New York Ave NW,42,27,-77.029822,31227,0824aa39-1f3f-11e7-bf6b-3863bb334450,"{'ios': 'https://dc.lft.to/lastmile_qr_scan', 'android': 'https://dc.lft.to/lastmile_qr_scan'}",38.900283,"Washington, DC"
9th & Upshur St NW,42,16,-77.0251,31404,08251532-1f3f-11e7-bf6b-3863bb334450,"{'ios': 'https://dc.lft.to/lastmile_qr_scan', 'android': 'https://dc.lft.to/lastmile_qr_scan'}",38.9418,"Washington, DC"
Riverdale Park Town Center,133,17,-76.935578,32421,d8f65b11-57ec-4a9f-9b52-f5696e129f02,"{'ios': 'https://dc.lft.to/lastmile_qr_scan', 'android': 'https://dc.lft.to/lastmile_qr_scan'}",38.962119,Prince George's County
9th & Ingraham St NW,42,19,-77.02561318874359,31424,30b5e0c1-7ca6-4050-8566-3fccf0b60890,"{'ios': 'https://dc.lft.to/lastmile_qr_scan', 'android': 'https://dc.lft.to/lastmile_qr_scan'}",38.95366314394005,"Washington, DC"
Connecticut Ave & Ordway St NW / Cleveland Park Metro ,,15,-77.058468,31338,1928837279316128558,"{'ios': 'https://dc.lft.to/lastmile_qr_scan', 'android': 'https://dc.lft.to/lastmile_qr_scan'}",38.935842,
Prosperity Ave & Avenir Pl,,11,-77.23037748489112,31386,1893303738183408178,"{'ios': 'https://dc.lft.to/lastmile_qr_scan', 'android': 'https://dc.lft.to/lastmile_qr_scan'}",38.88143586412813,
Briggs Chaney & Castle Dr,44,19,-76.945495,32086,5075ddc9-7546-44a6-9445-0a48a53267df,"{'ios': 'https://dc.lft.to/lastmile_qr_scan', 'android': 'https://dc.lft.to/lastmile_qr_scan'}",39.081638,"Montgomery County, MD (South)"
Oklahoma Ave & D St NE,42,19,-76.974828,31712,08261245-1f3f-11e7-bf6b-3863bb334450,"{'ios': 'https://dc.lft.to/lastmile_qr_scan', 'android': 'https://dc.lft.to/lastmile_qr_scan'}",38.894474,"Washington, DC"
10th & Monroe St NE,42,19,-76.99353396892548,31504,0824bb59-1f3f-11e7-bf6b-3863bb334450,"{'ios': 'https://dc.lft.to/lastmile_qr_scan', 'android': 'https://dc.lft.to/lastmile_qr_scan'}",38.932456900063606,"Washington, DC"
Norfolk & Rugby Ave,44,11,-77.100239,32028,0825b27e-1f3f-11e7-bf6b-3863bb334450,"{'ios': 'https://dc.lft.to/lastmile_qr_scan', 'android': 'https://dc.lft.to/lastmile_qr_scan'}",38.990639,"Montgomery County, MD (South)"
N Veitch St & Key Blvd,41,12,-77.086063,31028,082524a2-1f3f-11e7-bf6b-3863bb334450,"{'ios': 'https://dc.lft.to/lastmile_qr_scan', 'android': 'https://dc.lft.to/lastmile_qr_scan'}",38.893237,"Arlington, VA"
South Capitol St and Southern Ave SE,42,15,-77.001095,31830,9973e0f4-23dd-4b50-9ef4-8408fa8a1105,"{'ios': 'https://dc.lft.to/lastmile_qr_scan', 'android': 'https://dc.lft.to/lastmile_qr_scan'}",38.821563,"Washington, DC"
Georgia Ave & Morton St NW,42,19,-77.0235,31419,461df1a0-fac6-4a11-ac4c-ff795e6299c9,"{'ios': 'https://dc.lft.to/lastmile_qr_scan', 'android': 'https://dc.lft.to/lastmile_qr_scan'}",38.932128,"Washington, DC"
W&OD Trail/Sunset Hills Rd & Old Reston Ave,104,15,-77.351649,32213,082639c8-1f3f-11e7-bf6b-3863bb334450,"{'ios': 'https://dc.lft.to/lastmile_qr_scan', 'android': 'https://dc.lft.to/lastmile_qr_scan'}",38.955079,"Fairfax, VA"
18th St & Pennsylvania Ave NW,42,24,-77.041539,31242,08250172-1f3f-11e7-bf6b-3863bb334450,"{'ios': 'https://dc.lft.to/lastmile_qr_scan', 'android': 'https://dc.lft.to/lastmile_qr_scan'}",38.89968,"Washington, DC"
Fair Woods Pkwy & Fairfax Blvd,,12,-77.293922,32281,1875305027705686898,"{'ios': 'https://dc.lft.to/lastmile_qr_scan', 'android': 'https://dc.lft.to/lastmile_qr_scan'}",38.862804,
Hyattsville Library / Adelphi Rd & Toledo Rd,133,15,-76.9493,32417,bcb21167-85ed-4374-8807-d9409aaa01a5,"{'ios': 'https://dc.lft.to/lastmile_qr_scan', 'android': 'https://dc.lft.to/lastmile_qr_scan'}",38.9698,Prince George's County
Westbranch Dr & Maitland St,,12,-77.220829,31381,1900610962867255780,"{'ios': 'https://dc.lft.to/lastmile_qr_scan', 'android': 'https://dc.lft.to/lastmile_qr_scan'}",38.927943,
Jefferson Memorial,42,23,-77.037413,31249,082527e7-1f3f-11e7-bf6b-3863bb334450,"{'ios': 'https://dc.lft.to/lastmile_qr_scan', 'android': 'https://dc.lft.to/lastmile_qr_scan'}",38.879819,"Washington, DC"
17th & Upshur St NW,42,19,-77.038684,31420,72e7c396-11ad-4e88-bf4b-e60584f748fc,"{'ios': 'https://dc.lft.to/lastmile_qr_scan', 'android': 'https://dc.lft.to/lastmile_qr_scan'}",38.942146,"Washington, DC"
17th St & Potomac Ave SE / Congressional Cemetery ,,19,-76.980715,31727,1941813138517442794,"{'ios': 'https://dc.lft.to/lastmile_qr_scan', 'android': 'https://dc.lft.to/lastmile_qr_scan'}",38.882458,
Clark St & 26th St S,41,12,-77.05152,31012,0824739d-1f3f-11e7-bf6b-3863bb334450,"{'ios': 'https://dc.lft.to/lastmile_qr_scan', 'android': 'https://dc.lft.to/lastmile_qr_scan'}",38.850688,"Arlington, VA"
34th & Water St NW,42,19,-77.0675285,31314,0825f3d4-1f3f-11e7-bf6b-3863bb334450,"{'ios': 'https://dc.lft.to/lastmile_qr_scan', 'android': 'https://dc.lft.to/lastmile_qr_scan'}",38.9037315,"Washington, DC"
Oklahoma Ave & Benning Rd NE,42,19,-76.9695094,31719,54962348-19dd-47b8-a816-bce25eb658a1,"{'ios': 'https://dc.lft.to/lastmile_qr_scan', 'android': 'https://dc.lft.to/lastmile_qr_scan'}",38.8974996,"Washington, DC"
First St & Fayette St,40,16,-77.050105,31970,889571f8-5774-4097-a31f-4b6e3f5b4381,"{'ios': 'https://dc.lft.to/lastmile_qr_scan', 'android': 'https://dc.lft.to/lastmile_qr_scan'}",38.817019,"Alexandria, VA"
Langston Blvd & N Cleveland St,41,15,-77.09169,31079,0825f4f2-1f3f-11e7-bf6b-3863bb334450,"{'ios': 'https://dc.lft.to/lastmile_qr_scan', 'android': 'https://dc.lft.to/lastmile_qr_scan'}",38.894941,"Arlington, VA"
1st St & Potomac Ave SE,42,19,-77.00591,31668,66c82803-70e3-496f-9942-30e0936de3f5,"{'ios': 'https://dc.lft.to/lastmile_qr_scan', 'android': 'https://dc.lft.to/lastmile_qr_scan'}",38.871841,"Washington, DC"
Eden Center,152,12,-77.15284913778305,32601,a016ea6f-0d7f-45fb-b8ac-0cfe22cd972a,"{'ios': 'https://dc.lft.to/lastmile_qr_scan', 'android': 'https://dc.lft.to/lastmile_qr_scan'}",38.87380771851765,"Falls Church, VA"
4th & O St SW,42,15,-77.017585,31678,9c6fb0a8-d371-433f-b52e-ca47881156b3,"{'ios': 'https://dc.lft.to/lastmile_qr_scan', 'android': 'https://dc.lft.to/lastmile_qr_scan'}",38.872964,"Washington, DC"
Deanwood Rec Center,42,15,-76.933099,31711,0825baa3-1f3f-11e7-bf6b-3863bb334450,"{'ios': 'https://dc.lft.to/lastmile_qr_scan', 'android': 'https://dc.lft.to/lastmile_qr_scan'}",38.908473,"Washington, DC"
S Pickett St & Shillings St,40,15,-77.132334,31953,2260574d-dbc6-4416-9f8c-3e1fcc0d9f5b,"{'ios': 'https://dc.lft.to/lastmile_qr_scan', 'android': 'https://dc.lft.to/lastmile_qr_scan'}",38.804486,"Alexandria, VA"
22nd & H St NW,42,17,-77.04885238395946,31127,d325a449-32d7-488d-b746-9455ad003834,"{'ios': 'https://dc.lft.to/lastmile_qr_scan', 'android': 'https://dc.lft.to/lastmile_qr_scan'}",38.89892546716842,"Washington, DC"
23rd St S & Hayes St,41,15,-77.059496,31938,99644655-ef85-4e13-a331-a344d88ded32,"{'ios': 'https://dc.lft.to/lastmile_qr_scan', 'android': 'https://dc.lft.to/lastmile_qr_scan'}",38.853002,"Arlington, VA"
Kenmore Ave & Seminary Rd,40,11,-77.110588,31946,347b72fa-4ae2-4017-a9bf-344a122cddeb,"{'ios': 'https://dc.lft.to/lastmile_qr_scan', 'android': 'https://dc.lft.to/lastmile_qr_scan'}",38.828887,"Alexandria, VA"
American University East Campus,42,19,-77.087128,31320,ad6ec1ce-db22-47c1-acf3-507897d40725,"{'ios': 'https://dc.lft.to/lastmile_qr_scan', 'android': 'https://dc.lft.to/lastmile_qr_scan'}",38.936298,"Washington, DC"
4th & W St NE,42,15,-77.000648,31500,0824833c-1f3f-11e7-bf6b-3863bb334450,"{'ios': 'https://dc.lft.to/lastmile_qr_scan', 'android': 'https://dc.lft.to/lastmile_qr_scan'}",38.919077,"Washington, DC"
L'Enfant Plaza / 7th & C St SW,42,15,-77.022241,31218,08249d44-1f3f-11e7-bf6b-3863bb334450,"{'ios': 'https://dc.lft.to/lastmile_qr_scan', 'android': 'https://dc.lft.to/lastmile_qr_scan'}",38.886266,"Washington, DC"
3rd & H St NW,42,15,-77.015289,31604,082493a5-1f3f-11e7-bf6b-3863bb334450,"{'ios': 'https://dc.lft.to/lastmile_qr_scan', 'android': 'https://dc.lft.to/lastmile_qr_scan'}",38.899408,"Washington, DC"
Long Bridge Park / Long Bridge Dr & 6th St S,41,15,-77.05003,31090,0825fb66-1f3f-11e7-bf6b-3863bb334450,"{'ios': 'https://dc.lft.to/lastmile_qr_scan', 'android': 'https://dc.lft.to/lastmile_qr_scan'}",38.865553,"Arlington, VA"
14th & Belmont St NW,42,24,-77.031887,31119,08258d95-1f3f-11e7-bf6b-3863bb334450,"{'ios': 'https://dc.lft.to/lastmile_qr_scan', 'android': 'https://dc.lft.to/lastmile_qr_scan'}",38.921074,"Washington, DC"
Lamont & Mt Pleasant NW,42,23,-77.0388,31107,082477f4-1f3f-11e7-bf6b-3863bb334450,"{'ios': 'https://dc.lft.to/lastmile_qr_scan', 'android': 'https://dc.lft.to/lastmile_qr_scan'}",38.9319,"Washington, DC"
Calvert St & Woodley Pl NW,42,19,-77.050046,31121,0825b8f0-1f3f-11e7-bf6b-3863bb334450,"{'ios': 'https://dc.lft.to/lastmile_qr_scan', 'android': 'https://dc.lft.to/lastmile_qr_scan'}",38.923583,"Washington, DC"
Wisconsin Ave & Ingomar St NW,42,19,-77.084636,31317,0826176a-1f3f-11e7-bf6b-3863bb334450,"{'ios': 'https://dc.lft.to/lastmile_qr_scan', 'android': 'https://dc.lft.to/lastmile_qr_scan'}",38.958267,"Washington, DC"
Fessenden St & Wisconsin Ave NW,42,15,-77.082426,31309,08254529-1f3f-11e7-bf6b-3863bb334450,"{'ios': 'https://dc.lft.to/lastmile_qr_scan', 'android': 'https://dc.lft.to/lastmile_qr_scan'}",38.954812,"Washington, DC"
New Hampshire Ave & Ward Pl NW,42,19,-77.0473176240921,31212,082492e1-1f3f-11e7-bf6b-3863bb334450,"{'ios': 'https://dc.lft.to/lastmile_qr_scan', 'android': 'https://dc.lft.to/lastmile_qr_scan'}",38.90571079190728,"Washington, DC"
S Four Mile Run Dr & Walter Reed Dr,41,12,-77.095431,31059,08254d7e-1f3f-11e7-bf6b-3863bb334450,"{'ios': 'https://dc.lft.to/lastmile_qr_scan', 'android': 'https://dc.lft.to/lastmile_qr_scan'}",38.84736,"Arlington, VA"
13th & H St NE,42,31,-76.98825001716614,31611,08249fbc-1f3f-11e7-bf6b-3863bb334450,"{'ios': 'https://dc.lft.to/lastmile_qr_scan', 'android': 'https://dc.lft.to/lastmile_qr_scan'}",38.90042673988099,"Washington, DC"
Kansas Ave & Longfellow St NW,42,19,-77.013821,31423,d1fd7121-67e3-46a9-b415-e84a565394f2,"{'ios': 'https://dc.lft.to/lastmile_qr_scan', 'android': 'https://dc.lft.to/lastmile_qr_scan'}",38.958098,"Washington, DC"
20th & N St NW ,42,20,-77.044975,32301,2059787017920998338,"{'ios': 'https://dc.lft.to/lastmile_qr_scan', 'android': 'https://dc.lft.to/lastmile_qr_scan'}",38.907045,"Washington, DC"
55th & East Capitol St NE,,12,-76.922783,31728,1950995089993550758,"{'ios': 'https://dc.lft.to/lastmile_qr_scan', 'android': 'https://dc.lft.to/lastmile_qr_scan'}",38.889926,
Wilson Blvd & N Quincy St,41,15,-77.107854,31039,08252a00-1f3f-11e7-bf6b-3863bb334450,"{'ios': 'https://dc.lft.to/lastmile_qr_scan', 'android': 'https://dc.lft.to/lastmile_qr_scan'}",38.880012,"Arlington, VA"
16th & Harvard St NW,42,19,-77.03665,31135,ae007456-14ad-4619-a92e-e3a40f93a412,"{'ios': 'https://dc.lft.to/lastmile_qr_scan', 'android': 'https://dc.lft.to/lastmile_qr_scan'}",38.926102,"Washington, DC"
Grandview & Blueridge Ave,44,15,-77.053085,32065,08265262-1f3f-11e7-bf6b-3863bb334450,"{'ios': 'https://dc.lft.to/lastmile_qr_scan', 'android': 'https://dc.lft.to/lastmile_qr_scan'}",39.043272,"Montgomery County, MD (South)"
6th St & Indiana Ave NW,42,19,-77.01994,31264,08252414-1f3f-11e7-bf6b-3863bb334450,"{'ios': 'https://dc.lft.to/lastmile_qr_scan', 'android': 'https://dc.lft.to/lastmile_qr_scan'}",38.894573,"Washington, DC"
10th & G St NW,42,23,-77.02623546123505,31274,0825f622-1f3f-11e7-bf6b-3863bb334450,"{'ios': 'https://dc.lft.to/lastmile_qr_scan', 'android': 'https://dc.lft.to/lastmile_qr_scan'}",38.89824328774852,"Washington, DC"
7th & K St NW,42,19,-77.021392,31653,a0d0ec92-ebda-436a-b476-7ee9a7bdb67d,"{'ios': 'https://dc.lft.to/lastmile_qr_scan', 'android': 'https://dc.lft.to/lastmile_qr_scan'}",38.902674,"Washington, DC"
Fillmore & Bisdorf,40,11,-77.116206,31961,a8ffa826-a14d-4bb0-ab33-de6b8c34d190,"{'ios': 'https://dc.lft.to/lastmile_qr_scan', 'android': 'https://dc.lft.to/lastmile_qr_scan'}",38.83863,"Alexandria, VA"
18th & L St NW,42,19,-77.04245209693909,31224,0824a5b0-1f3f-11e7-bf6b-3863bb334450,"{'ios': 'https://dc.lft.to/lastmile_qr_scan', 'android': 'https://dc.lft.to/lastmile_qr_scan'}",38.903741450919384,"Washington, DC"
Kenilworth Terr & Hayes St. NE,42,19,-76.9472873210907,31717,07a453e5-2e14-4276-85df-49e0d6144e54,"{'ios': 'https://dc.lft.to/lastmile_qr_scan', 'android': 'https://dc.lft.to/lastmile_qr_scan'}",38.90046848783359,"Washington, DC"
N Pershing Dr & N Quebec St,41,15,-77.104784,31973,174fc644-1a5a-4923-a8b5-373e0ad04525,"{'ios': 'https://dc.lft.to/lastmile_qr_scan', 'android': 'https://dc.lft.to/lastmile_qr_scan'}",38.874248,"Arlington, VA"
Falls Church City Hall / Park Ave & Little Falls St,152,12,-77.173605,32608,3735d025-7e82-467c-8844-29d08d66b0e4,"{'ios': 'https://dc.lft.to/lastmile_qr_scan', 'android': 'https://dc.lft.to/lastmile_qr_scan'}",38.885434,"Falls Church, VA"
Mandeville Ln & Stovall St,40,12,-77.072558,31974,141766fa-fa3b-4c61-8e46-a8673c910a0c,"{'ios': 'https://dc.lft.to/lastmile_qr_scan', 'android': 'https://dc.lft.to/lastmile_qr_scan'}",38.802893,"Alexandria, VA"
3000 Connecticut Ave NW / National Zoo,42,15,-77.055599,31307,0825180e-1f3f-11e7-bf6b-3863bb334450,"{'ios': 'https://dc.lft.to/lastmile_qr_scan', 'android': 'https://dc.lft.to/lastmile_qr_scan'}",38.930282,"Washington, DC"
22nd & I St NW / Foggy Bottom,42,32,-77.048911,31257,08254037-1f3f-11e7-bf6b-3863bb334450,"{'ios': 'https://dc.lft.to/lastmile_qr_scan', 'android': 'https://dc.lft.to/lastmile_qr_scan'}",38.90088,"Washington, DC"
18th & Upshur St NE,,15,-76.980378,31545,1934708272694780030,"{'ios': 'https://dc.lft.to/lastmile_qr_scan', 'android': 'https://dc.lft.to/lastmile_qr_scan'}",38.941733,
New Jersey Ave & H St SE,42,19,-77.00574070215225,31828,2574f980-163e-4b9b-8107-6145615815b3,"{'ios': 'https://dc.lft.to/lastmile_qr_scan', 'android': 'https://dc.lft.to/lastmile_qr_scan'}",38.880760725950644,"Washington, DC"
Rockville Metro West,43,19,-77.146866,32047,0825f1f7-1f3f-11e7-bf6b-3863bb334450,"{'ios': 'https://dc.lft.to/lastmile_qr_scan', 'android': 'https://dc.lft.to/lastmile_qr_scan'}",39.084379,"Montgomery County, MD (North)"
18th St & Ingleside Ter NW,,19,-77.041362,31339,1931715167823202508,"{'ios': 'https://dc.lft.to/lastmile_qr_scan', 'android': 'https://dc.lft.to/lastmile_qr_scan'}",38.934784,
Richmond Hwy & Swann Ave,40,15,-77.050979,31986,2090124359743376372,"{'ios': 'https://dc.lft.to/lastmile_qr_scan', 'android': 'https://dc.lft.to/lastmile_qr_scan'}",38.829222,"Alexandria, VA"
M St & Pennsylvania Ave NW,42,20,-77.056887,31246,08251984-1f3f-11e7-bf6b-3863bb334450,"{'ios': 'https://dc.lft.to/lastmile_qr_scan', 'android': 'https://dc.lft.to/lastmile_qr_scan'}",38.905126,"Washington, DC"
Court House Metro / 15th St & N Uhle St,41,16,-77.084801,31089,0825fa8b-1f3f-11e7-bf6b-3863bb334450,"{'ios': 'https://dc.lft.to/lastmile_qr_scan', 'android': 'https://dc.lft.to/lastmile_qr_scan'}",38.890612,"Arlington, VA"
Greenbelt Station Parkway,133,11,-76.916243,32426,cec05512-b9d1-4671-bc76-8b168079db93,"{'ios': 'https://dc.lft.to/lastmile_qr_scan', 'android': 'https://dc.lft.to/lastmile_qr_scan'}",39.002459,Prince George's County
12th St & New York Ave NW,42,27,-77.028061,31670,b554d2fc-8912-4730-b2cb-9a3e1a96b223,"{'ios': 'https://dc.lft.to/lastmile_qr_scan', 'android': 'https://dc.lft.to/lastmile_qr_scan'}",38.901104,"Washington, DC"
Columbia Pike & S Courthouse Rd,41,15,-77.080319,31053,0825460b-1f3f-11e7-bf6b-3863bb334450,"{'ios': 'https://dc.lft.to/lastmile_qr_scan', 'android': 'https://dc.lft.to/lastmile_qr_scan'}",38.863833,"Arlington, VA"
29th & M St NW,42,20,-77.058056,33000,2092445515673610924,"{'ios': 'https://dc.lft.to/lastmile_qr_scan', 'android': 'https://dc.lft.to/lastmile_qr_scan'}",38.904942,"Washington, DC"
New Hampshire & Lockwood,44,19,-76.9918237,32089,c77801a4-2795-4f72-825e-c02f8facb72f,"{'ios': 'https://dc.lft.to/lastmile_qr_scan', 'android': 'https://dc.lft.to/lastmile_qr_scan'}",39.0391022,"Montgomery County, MD (South)"
5th & Morse St NE,42,19,-76.99916660785675,31536,79ae0ec5-9bbd-41ee-a9e9-7753233b5e77,"{'ios': 'https://dc.lft.to/lastmile_qr_scan', 'android': 'https://dc.lft.to/lastmile_qr_scan'}",38.907286773254675,"Washington, DC"
Sunrise Valley Dr & Roland Clarke Pl,,12,-77.350396,31380,1901331776956725958,"{'ios': 'https://dc.lft.to/lastmile_qr_scan', 'android': 'https://dc.lft.to/lastmile_qr_scan'}",38.949366,
Westpark Dr & Leesburg Pike,104,11,-77.235955,32201,082634c6-1f3f-11e7-bf6b-3863bb334450,"{'ios': 'https://dc.lft.to/lastmile_qr_scan', 'android': 'https://dc.lft.to/lastmile_qr_scan'}",38.92403,"Fairfax, VA"
Long Bridge Aquatic Center,41,12,-77.04409494996071,31950,065defed-8e90-46b9-a106-28d590704cf8,"{'ios': 'https://dc.lft.to/lastmile_qr_scan', 'android': 'https://dc.lft.to/lastmile_qr_scan'}",38.87056104566178,"Arlington, VA"
Fairfax Dr & Wilson Blvd,41,12,-77.097745,31023,08251ded-1f3f-11e7-bf6b-3863bb334450,"{'ios': 'https://dc.lft.to/lastmile_qr_scan', 'android': 'https://dc.lft.to/lastmile_qr_scan'}",38.885801,"Arlington, VA"
National Airport,41,19,-77.045916,31935,0248fa3b-6df4-4fdc-ae31-ee2e4d177da8,"{'ios': 'https://dc.lft.to/lastmile_qr_scan', 'android': 'https://dc.lft.to/lastmile_qr_scan'}",38.852903,"Arlington, VA"
Loughboro Rd & Dalecarlia Pkwy NW / Sibley Hospital,42,19,-77.106913,31334,e710493d-96af-49da-a8ed-8e3e7301c82c,"{'ios': 'https://dc.lft.to/lastmile_qr_scan', 'android': 'https://dc.lft.to/lastmile_qr_scan'}",38.935839,"Washington, DC"
Wakefield High School,41,12,-77.1125502884388,31054,0825467b-1f3f-11e7-bf6b-3863bb334450,"{'ios': 'https://dc.lft.to/lastmile_qr_scan', 'android': 'https://dc.lft.to/lastmile_qr_scan'}",38.847129045742605,"Arlington, VA"
Westpark & Park Run Dr,104,11,-77.22518,32207,0826373c-1f3f-11e7-bf6b-3863bb334450,"{'ios': 'https://dc.lft.to/lastmile_qr_scan', 'android': 'https://dc.lft.to/lastmile_qr_scan'}",38.928854,"Fairfax, VA"
School St & George Mason Blvd,,12,-77.30938,32282,1877540418168925068,"{'ios': 'https://dc.lft.to/lastmile_qr_scan', 'android': 'https://dc.lft.to/lastmile_qr_scan'}",38.837382,
Pimmit Dr & Los Pueblos Ln,104,12,-77.205428,32265,39d08937-66b3-4fd8-89d0-49e5144f1922,"{'ios': 'https://dc.lft.to/lastmile_qr_scan', 'android': 'https://dc.lft.to/lastmile_qr_scan'}",38.900371,"Fairfax, VA"
S Troy St & 26th St S,41,12,-77.075184,31056,08254a1e-1f3f-11e7-bf6b-3863bb334450,"{'ios': 'https://dc.lft.to/lastmile_qr_scan', 'android': 'https://dc.lft.to/lastmile_qr_scan'}",38.848381,"Arlington, VA"
King Greenleaf Rec Center,42,19,-77.012443,31654,99ddcd49-1312-4d80-8030-9bc2732deb5c,"{'ios': 'https://dc.lft.to/lastmile_qr_scan', 'android': 'https://dc.lft.to/lastmile_qr_scan'}",38.876211,"Washington, DC"
10th & Quincy St NE / Turkey Thicket Rec,42,19,-76.993509,31541,343aa3f9-0b2f-4599-9854-81cbc04577f4,"{'ios': 'https://dc.lft.to/lastmile_qr_scan', 'android': 'https://dc.lft.to/lastmile_qr_scan'}",38.937849,"Washington, DC"
Eads St & 12th St S,41,21,-77.054277,31071,0825bc56-1f3f-11e7-bf6b-3863bb334450,"{'ios': 'https://dc.lft.to/lastmile_qr_scan', 'android': 'https://dc.lft.to/lastmile_qr_scan'}",38.862841,"Arlington, VA"
King St & Kenwood Ave,40,16,-77.085066,31957,bc1a59ac-f82d-44bd-9f2d-b5801f8bbb8d,"{'ios': 'https://dc.lft.to/lastmile_qr_scan', 'android': 'https://dc.lft.to/lastmile_qr_scan'}",38.824793,"Alexandria, VA"
3rd St & Pennsylvania Ave SE,42,15,-77.001955,31269,08256a59-1f3f-11e7-bf6b-3863bb334450,"{'ios': 'https://dc.lft.to/lastmile_qr_scan', 'android': 'https://dc.lft.to/lastmile_qr_scan'}",38.887378,"Washington, DC"
California St & Florida Ave NW,42,19,-77.04062,31116,082516c1-1f3f-11e7-bf6b-3863bb334450,"{'ios': 'https://dc.lft.to/lastmile_qr_scan', 'android': 'https://dc.lft.to/lastmile_qr_scan'}",38.917761,"Washington, DC"
Takoma Park Rec Center,44,15,-76.988311,32059,0826502d-1f3f-11e7-bf6b-3863bb334450,"{'ios': 'https://dc.lft.to/lastmile_qr_scan', 'android': 'https://dc.lft.to/lastmile_qr_scan'}",38.98265,"Montgomery County, MD (South)"
W&OD Trail & Langston Blvd,41,15,-77.16212,31948,5982cdb9-2f4d-490f-8e7c-030adfac87be,"{'ios': 'https://dc.lft.to/lastmile_qr_scan', 'android': 'https://dc.lft.to/lastmile_qr_scan'}",38.88715,"Arlington, VA"
Wilson Blvd & N Quinn St,41,17,-77.07857,31027,08251e7d-1f3f-11e7-bf6b-3863bb334450,"{'ios': 'https://dc.lft.to/lastmile_qr_scan', 'android': 'https://dc.lft.to/lastmile_qr_scan'}",38.893993,"Arlington, VA"
14th St & New York Ave NW,42,31,-77.031686,31216,08249aa2-1f3f-11e7-bf6b-3863bb334450,"{'ios': 'https://dc.lft.to/lastmile_qr_scan', 'android': 'https://dc.lft.to/lastmile_qr_scan'}",38.899632,"Washington, DC"
Silver Spring Metro / Colesville Rd & Wayne Ave,44,19,-77.02912420034409,32012,0825881b-1f3f-11e7-bf6b-3863bb334450,"{'ios': 'https://dc.lft.to/lastmile_qr_scan', 'android': 'https://dc.lft.to/lastmile_qr_scan'}",38.995256441231696,"Montgomery County, MD (South)"
22nd & P ST NW,42,19,-77.048728,31285,08261b21-1f3f-11e7-bf6b-3863bb334450,"{'ios': 'https://dc.lft.to/lastmile_qr_scan', 'android': 'https://dc.lft.to/lastmile_qr_scan'}",38.909394,"Washington, DC"
Hartland Rd & Harte Pl,104,11,-77.222808,32255,c271d265-76c8-49f9-9b3c-b9490fb97ac0,"{'ios': 'https://dc.lft.to/lastmile_qr_scan', 'android': 'https://dc.lft.to/lastmile_qr_scan'}",38.878601,"Fairfax, VA"
Edgewood Rec Center,42,15,-77.002098,31529,ed8f70f3-15e3-448c-86c5-d27d87402ad3,"{'ios': 'https://dc.lft.to/lastmile_qr_scan', 'android': 'https://dc.lft.to/lastmile_qr_scan'}",38.924144,"Washington, DC"
Pennsylvania Ave & Park Ave,152,12,-77.176992,32603,33ae16de-ca5b-4253-9096-35ccae7bb8dd,"{'ios': 'https://dc.lft.to/lastmile_qr_scan', 'android': 'https://dc.lft.to/lastmile_qr_scan'}",38.887403,"Falls Church, VA"
Connecticut & Nebraska Ave NW,42,23,-77.069956,31310,08254ffb-1f3f-11e7-bf6b-3863bb334450,"{'ios': 'https://dc.lft.to/lastmile_qr_scan', 'android': 'https://dc.lft.to/lastmile_qr_scan'}",38.955016,"Washington, DC"
15th St & Massachusetts Ave SE,42,15,-76.983569,31626,08251a1b-1f3f-11e7-bf6b-3863bb334450,"{'ios': 'https://dc.lft.to/lastmile_qr_scan', 'android': 'https://dc.lft.to/lastmile_qr_scan'}",38.88732,"Washington, DC"
South Dakota Ave & Bladensburg Rd NE,42,15,-76.964896,31538,183f8ffb-756c-4271-8d9a-a5cde3f13116,"{'ios': 'https://dc.lft.to/lastmile_qr_scan', 'android': 'https://dc.lft.to/lastmile_qr_scan'}",38.9252,"Washington, DC"
20th & E St NW,42,15,-77.045,31204,08247aa4-1f3f-11e7-bf6b-3863bb334450,"{'ios': 'https://dc.lft.to/lastmile_qr_scan', 'android': 'https://dc.lft.to/lastmile_qr_scan'}",38.8963,"Washington, DC"
Virginia Hospital Center,41,15,-77.12801456451415,31976,5f060548-684b-469b-8825-66c80d77a874,"{'ios': 'https://dc.lft.to/lastmile_qr_scan', 'android': 'https://dc.lft.to/lastmile_qr_scan'}",38.88791377249907,"Arlington, VA"
33rd St & Wisconsin Ave NW,,19,-77.066074,31337,1926924117062925284,"{'ios': 'https://dc.lft.to/lastmile_qr_scan', 'android': 'https://dc.lft.to/lastmile_qr_scan'}",38.912181,
Park Pl & Rock Creek Church Rd NW,42,19,-77.01912492513657,31137,9b9156b3-51c3-44c8-af49-46e3f4dea30f,"{'ios': 'https://dc.lft.to/lastmile_qr_scan', 'android': 'https://dc.lft.to/lastmile_qr_scan'}",38.93713516763736,"Washington, DC"
Veterans Pl & Pershing Dr ,44,11,-77.023894,32043,0825e0a1-1f3f-11e7-bf6b-3863bb334450,"{'ios': 'https://dc.lft.to/lastmile_qr_scan', 'android': 'https://dc.lft.to/lastmile_qr_scan'}",38.997445,"Montgomery County, MD (South)"
Carlin Springs Rd & N Thomas St,41,15,-77.112982,31919,08264392-1f3f-11e7-bf6b-3863bb334450,"{'ios': 'https://dc.lft.to/lastmile_qr_scan', 'android': 'https://dc.lft.to/lastmile_qr_scan'}",38.876695,"Arlington, VA"
18th & Monroe St NE,42,19,-76.979517,31521,0826547e-1f3f-11e7-bf6b-3863bb334450,"{'ios': 'https://dc.lft.to/lastmile_qr_scan', 'android': 'https://dc.lft.to/lastmile_qr_scan'}",38.93293,"Washington, DC"
North Capitol & K St NE,42,19,-77.00824588537216,31675,7995da4d-4d99-4797-bb9f-37a51a28cc09,"{'ios': 'https://dc.lft.to/lastmile_qr_scan', 'android': 'https://dc.lft.to/lastmile_qr_scan'}",38.90244372501735,"Washington, DC"
15th & M St NW,42,19,-77.034674,31298,7fcbf92d-a257-4973-828b-181d5602eee5,"{'ios': 'https://dc.lft.to/lastmile_qr_scan', 'android': 'https://dc.lft.to/lastmile_qr_scan'}",38.905424,"Washington, DC"
Commonwealth Ave & E Monroe Ave,40,15,-77.06282079219818,31913,08262094-1f3f-11e7-bf6b-3863bb334450,"{'ios': 'https://dc.lft.to/lastmile_qr_scan', 'android': 'https://dc.lft.to/lastmile_qr_scan'}",38.82005823354218,"Alexandria, VA"
Washington Blvd & 7th St N,41,12,-77.090792,31032,08252645-1f3f-11e7-bf6b-3863bb334450,"{'ios': 'https://dc.lft.to/lastmile_qr_scan', 'android': 'https://dc.lft.to/lastmile_qr_scan'}",38.88081,"Arlington, VA"
Capitol Ave & Kendall St NE,42,19,-76.985854,31530,336a1fe2-8e92-49ad-ab6a-c6c392d3edcd,"{'ios': 'https://dc.lft.to/lastmile_qr_scan', 'android': 'https://dc.lft.to/lastmile_qr_scan'}",38.910993,"Washington, DC"
Fairfax Dr & N Randolph St,41,15,-77.109366,31034,0825275b-1f3f-11e7-bf6b-3863bb334450,"{'ios': 'https://dc.lft.to/lastmile_qr_scan', 'android': 'https://dc.lft.to/lastmile_qr_scan'}",38.882629,"Arlington, VA"
17th & G St NW,42,35,-77.039643,31277,0825fca2-1f3f-11e7-bf6b-3863bb334450,"{'ios': 'https://dc.lft.to/lastmile_qr_scan', 'android': 'https://dc.lft.to/lastmile_qr_scan'}",38.898301,"Washington, DC"
Georgia & New Hampshire Ave NW,42,19,-77.02418088912964,31400,08247baa-1f3f-11e7-bf6b-3863bb334450,"{'ios': 'https://dc.lft.to/lastmile_qr_scan', 'android': 'https://dc.lft.to/lastmile_qr_scan'}",38.9366839345886,"Washington, DC"
Friendship Blvd & Willard Ave,44,19,-77.088659,32040,0825bd74-1f3f-11e7-bf6b-3863bb334450,"{'ios': 'https://dc.lft.to/lastmile_qr_scan', 'android': 'https://dc.lft.to/lastmile_qr_scan'}",38.96115,"Montgomery County, MD (South)"
Kennebec St & 11th St N,41,15,-77.135271,31905,08261fb3-1f3f-11e7-bf6b-3863bb334450,"{'ios': 'https://dc.lft.to/lastmile_qr_scan', 'android': 'https://dc.lft.to/lastmile_qr_scan'}",38.880992,"Arlington, VA"
Arlington Blvd & Fillmore St,41,11,-77.089233,31070,0825bbc6-1f3f-11e7-bf6b-3863bb334450,"{'ios': 'https://dc.lft.to/lastmile_qr_scan', 'android': 'https://dc.lft.to/lastmile_qr_scan'}",38.873755,"Arlington, VA"
Monroe St & E Park Dr ,104,11,-77.389696,32322,2069026080266492516,"{'ios': 'https://dc.lft.to/lastmile_qr_scan', 'android': 'https://dc.lft.to/lastmile_qr_scan'}",38.950009,"Fairfax, VA"
Capitol Heights Metro,133,19,-76.913188,32419,3dc3100e-7a4c-4d34-8b92-e820f1bd46a0,"{'ios': 'https://dc.lft.to/lastmile_qr_scan', 'android': 'https://dc.lft.to/lastmile_qr_scan'}",38.888524,Prince George's County
Mount Vernon Ave & E Del Ray Ave,40,15,-77.058541,31086,0825f946-1f3f-11e7-bf6b-3863bb334450,"{'ios': 'https://dc.lft.to/lastmile_qr_scan', 'android': 'https://dc.lft.to/lastmile_qr_scan'}",38.82595,"Alexandria, VA"
South St & University Dr,,12,-77.305336,32283,1877158937567185816,"{'ios': 'https://dc.lft.to/lastmile_qr_scan', 'android': 'https://dc.lft.to/lastmile_qr_scan'}",38.844249,
25th St & Pennsylvania Ave NW,42,15,-77.053485,31237,0824cfe7-1f3f-11e7-bf6b-3863bb334450,"{'ios': 'https://dc.lft.to/lastmile_qr_scan', 'android': 'https://dc.lft.to/lastmile_qr_scan'}",38.903827,"Washington, DC"
Fort Totten Dr & Crittenden St NE,42,8,-77.006444,31731,2084993211094558994,"{'ios': 'https://dc.lft.to/lastmile_qr_scan', 'android': 'https://dc.lft.to/lastmile_qr_scan'}",38.948227,"Washington, DC"
10th & U St NW,42,19,-77.0259,31111,082483c2-1f3f-11e7-bf6b-3863bb334450,"{'ios': 'https://dc.lft.to/lastmile_qr_scan', 'android': 'https://dc.lft.to/lastmile_qr_scan'}",38.9172,"Washington, DC"
Anacostia Library,42,11,-76.9784,31804,0824980b-1f3f-11e7-bf6b-3863bb334450,"{'ios': 'https://dc.lft.to/lastmile_qr_scan', 'android': 'https://dc.lft.to/lastmile_qr_scan'}",38.865784,"Washington, DC"
Crystal Dr & 23rd St S,41,17,-77.049806,31011,08247310-1f3f-11e7-bf6b-3863bb334450,"{'ios': 'https://dc.lft.to/lastmile_qr_scan', 'android': 'https://dc.lft.to/lastmile_qr_scan'}",38.853328,"Arlington, VA"
Connecticut Ave & Macomb St NW / Cleveland Park,42,11,-77.0575301349163,31305,08247f59-1f3f-11e7-bf6b-3863bb334450,"{'ios': 'https://dc.lft.to/lastmile_qr_scan', 'android': 'https://dc.lft.to/lastmile_qr_scan'}",38.93362634918731,"Washington, DC"
The Shoppes @ Burnt Mills,44,19,-77.0041217,32085,44b6aaca-6a97-425c-9d95-93a1d836c22d,"{'ios': 'https://dc.lft.to/lastmile_qr_scan', 'android': 'https://dc.lft.to/lastmile_qr_scan'}",39.0313141,"Montgomery County, MD (South)"
7th & E St SW,42,19,-77.021741,31294,082654f4-1f3f-11e7-bf6b-3863bb334450,"{'ios': 'https://dc.lft.to/lastmile_qr_scan', 'android': 'https://dc.lft.to/lastmile_qr_scan'}",38.88345,"Washington, DC"
10th St & Florida Ave NW,42,19,-77.025672,31120,08259009-1f3f-11e7-bf6b-3863bb334450,"{'ios': 'https://dc.lft.to/lastmile_qr_scan', 'android': 'https://dc.lft.to/lastmile_qr_scan'}",38.920387,"Washington, DC"
14th St & Rhode Island Ave NW,42,31,-77.0323,31203,08247a21-1f3f-11e7-bf6b-3863bb334450,"{'ios': 'https://dc.lft.to/lastmile_qr_scan', 'android': 'https://dc.lft.to/lastmile_qr_scan'}",38.9086,"Washington, DC"
Mount Vernon Ave & Kennedy St,40,15,-77.059821,31088,0825fa22-1f3f-11e7-bf6b-3863bb334450,"{'ios': 'https://dc.lft.to/lastmile_qr_scan', 'android': 'https://dc.lft.to/lastmile_qr_scan'}",38.833077,"Alexandria, VA"
3rd & Tingey St SE,42,24,-77.002489,31634,08258e2d-1f3f-11e7-bf6b-3863bb334450,"{'ios': 'https://dc.lft.to/lastmile_qr_scan', 'android': 'https://dc.lft.to/lastmile_qr_scan'}",38.874967,"Washington, DC"
Pooks Hill Rd & Linden Ave,44,15,-77.107143,32057,08264525-1f3f-11e7-bf6b-3863bb334450,"{'ios': 'https://dc.lft.to/lastmile_qr_scan', 'android': 'https://dc.lft.to/lastmile_qr_scan'}",39.014716,"Montgomery County, MD (South)"
19th & Savannah St SE,42,11,-76.97703,31815,d61b3881-e324-4c6d-aa92-849716c70b04,"{'ios': 'https://dc.lft.to/lastmile_qr_scan', 'android': 'https://dc.lft.to/lastmile_qr_scan'}",38.84623,"Washington, DC"
Lee Center,40,15,-77.053766,31914,082625d9-1f3f-11e7-bf6b-3863bb334450,"{'ios': 'https://dc.lft.to/lastmile_qr_scan', 'android': 'https://dc.lft.to/lastmile_qr_scan'}",38.797557,"Alexandria, VA"
Castle Blvd & Castle Ln,44,19,-76.940547,32092,804fb759-1127-4059-a67a-c1fdd5d98082,"{'ios': 'https://dc.lft.to/lastmile_qr_scan', 'android': 'https://dc.lft.to/lastmile_qr_scan'}",39.085314,"Montgomery County, MD (South)"
GMU/Horizon Hall & Harris Theater,,15,-77.308069,32295,1929517249726509974,"{'ios': 'https://dc.lft.to/lastmile_qr_scan', 'android': 'https://dc.lft.to/lastmile_qr_scan'}",38.831211,
10th St & Constitution Ave NW,42,47,-77.026013,31219,08249dad-1f3f-11e7-bf6b-3863bb334450,"{'ios': 'https://dc.lft.to/lastmile_qr_scan', 'android': 'https://dc.lft.to/lastmile_qr_scan'}",38.893028,"Washington, DC"
2nd & V St SW / James Creek Marina,42,19,-77.013814,31667,4784f152-5012-49fc-b1bb-723a6d73aa09,"{'ios': 'https://dc.lft.to/lastmile_qr_scan', 'android': 'https://dc.lft.to/lastmile_qr_scan'}",38.863743,"Washington, DC"
Clarendon Metro / Wilson Blvd & N Highland St,41,21,-77.09525674581528,31022,0824ff6e-1f3f-11e7-bf6b-3863bb334450,"{'ios': 'https://dc.lft.to/lastmile_qr_scan', 'android': 'https://dc.lft.to/lastmile_qr_scan'}",38.88701007722296,"Arlington, VA"
Saint Asaph St & Madison St,40,15,-77.044097,31097,0826154d-1f3f-11e7-bf6b-3863bb334450,"{'ios': 'https://dc.lft.to/lastmile_qr_scan', 'android': 'https://dc.lft.to/lastmile_qr_scan'}",38.812718,"Alexandria, VA"
Columbia & Ontario Rd NW,42,23,-77.040787,31296,08265638-1f3f-11e7-bf6b-3863bb334450,"{'ios': 'https://dc.lft.to/lastmile_qr_scan', 'android': 'https://dc.lft.to/lastmile_qr_scan'}",38.924088,"Washington, DC"
41st St & Alabama Ave SE / Fort Davis Rec,42,15,-76.945283,31724,0099b016-32c9-4536-ac4c-dcc1a117bd95,"{'ios': 'https://dc.lft.to/lastmile_qr_scan', 'android': 'https://dc.lft.to/lastmile_qr_scan'}",38.870353,"Washington, DC"
7th St & Massachusetts Ave NE,42,19,-76.99602,31647,7814989b-dc73-4a7e-bd23-f716b9abbbfe,"{'ios': 'https://dc.lft.to/lastmile_qr_scan', 'android': 'https://dc.lft.to/lastmile_qr_scan'}",38.89222,"Washington, DC"
Town Center Pkwy & Sunset Hills Rd,104,11,-77.3630940914154,32224,082653a6-1f3f-11e7-bf6b-3863bb334450,"{'ios': 'https://dc.lft.to/lastmile_qr_scan', 'android': 'https://dc.lft.to/lastmile_qr_scan'}",38.955170598044894,"Fairfax, VA"
4th St & Madison Dr NW,42,31,-77.0172465,31288,082620fc-1f3f-11e7-bf6b-3863bb334450,"{'ios': 'https://dc.lft.to/lastmile_qr_scan', 'android': 'https://dc.lft.to/lastmile_qr_scan'}",38.8904955,"Washington, DC"
King St Metro North / Cameron St,40,15,-77.059817,31098,082615b7-1f3f-11e7-bf6b-3863bb334450,"{'ios': 'https://dc.lft.to/lastmile_qr_scan', 'android': 'https://dc.lft.to/lastmile_qr_scan'}",38.80704,"Alexandria, VA"
Bladensburg Rd & Benning Rd NE,42,15,-76.982872,31617,0824c0d5-1f3f-11e7-bf6b-3863bb334450,"{'ios': 'https://dc.lft.to/lastmile_qr_scan', 'android': 'https://dc.lft.to/lastmile_qr_scan'}",38.900413,"Washington, DC"
4th & D St NW / Judiciary Square,42,15,-77.016106,31621,0824cb9b-1f3f-11e7-bf6b-3863bb334450,"{'ios': 'https://dc.lft.to/lastmile_qr_scan', 'android': 'https://dc.lft.to/lastmile_qr_scan'}",38.895344,"Washington, DC"
Kansas Ave & Sherman Cr NW,42,19,-77.02154964208603,31417,c645ddde-0156-47ab-9616-3121f541a6f0,"{'ios': 'https://dc.lft.to/lastmile_qr_scan', 'android': 'https://dc.lft.to/lastmile_qr_scan'}",38.94796174822241,"Washington, DC"
Vienna Metro South,104,19,-77.270731,32260,fd44b399-4a55-4bbe-a326-20d138a2f0eb,"{'ios': 'https://dc.lft.to/lastmile_qr_scan', 'android': 'https://dc.lft.to/lastmile_qr_scan'}",38.877415,"Fairfax, VA"
Reston Cmty Ctr/Hunters Woods Plaza,104,11,-77.3609955168468,32320,2054578287373445230,"{'ios': 'https://dc.lft.to/lastmile_qr_scan', 'android': 'https://dc.lft.to/lastmile_qr_scan'}",38.936418545319846,"Fairfax, VA"
Arizona Ave & MacArthur Blvd NW,42,19,-77.103662,31331,1b1fd2f7-bcbd-43a2-bed1-ddf8e3cc4614,"{'ios': 'https://dc.lft.to/lastmile_qr_scan', 'android': 'https://dc.lft.to/lastmile_qr_scan'}",38.927294,"Washington, DC"
Westpark & Jones Branch Dr,104,11,-77.217664,32205,0826366d-1f3f-11e7-bf6b-3863bb334450,"{'ios': 'https://dc.lft.to/lastmile_qr_scan', 'android': 'https://dc.lft.to/lastmile_qr_scan'}",38.924437,"Fairfax, VA"
14th & Girard St NW,42,23,-77.032375,31123,08261c65-1f3f-11e7-bf6b-3863bb334450,"{'ios': 'https://dc.lft.to/lastmile_qr_scan', 'android': 'https://dc.lft.to/lastmile_qr_scan'}",38.925284,"Washington, DC"
14th & Q St NW,42,19,-77.03188,31327,a7b98322-bdbb-421e-b2e4-1bb42ef9d01f,"{'ios': 'https://dc.lft.to/lastmile_qr_scan', 'android': 'https://dc.lft.to/lastmile_qr_scan'}",38.910674,"Washington, DC"
Anacostia Roller Skating Pavilion,42,19,-76.97093,31720,d2a6b8ef-0d6d-4037-84e4-b905142031fa,"{'ios': 'https://dc.lft.to/lastmile_qr_scan', 'android': 'https://dc.lft.to/lastmile_qr_scan'}",38.878771,"Washington, DC"
Largo Rd & Campus Way / Prince Georges's Comm Col,133,15,-76.825535,32405,5945c731-a300-46e6-8e51-3236ad1f65f2,"{'ios': 'https://dc.lft.to/lastmile_qr_scan', 'android': 'https://dc.lft.to/lastmile_qr_scan'}",38.88994,Prince George's County
GMU/Rappahannock River Ln,,12,-77.30705653659993,32294,1929488700232798842,"{'ios': 'https://dc.lft.to/lastmile_qr_scan', 'android': 'https://dc.lft.to/lastmile_qr_scan'}",38.83480010457699,
Gravelly Point,41,17,-77.039511,31064,08256742-1f3f-11e7-bf6b-3863bb334450,"{'ios': 'https://dc.lft.to/lastmile_qr_scan', 'android': 'https://dc.lft.to/lastmile_qr_scan'}",38.865029,"Arlington, VA"
11th & S St NW,42,23,-77.027078,31280,082603fc-1f3f-11e7-bf6b-3863bb334450,"{'ios': 'https://dc.lft.to/lastmile_qr_scan', 'android': 'https://dc.lft.to/lastmile_qr_scan'}",38.913674,"Washington, DC"
10th & K St NW,42,24,-77.02622,31263,08251d5a-1f3f-11e7-bf6b-3863bb334450,"{'ios': 'https://dc.lft.to/lastmile_qr_scan', 'android': 'https://dc.lft.to/lastmile_qr_scan'}",38.9024,"Washington, DC"
Metro Park Dr & Walker Ln ,,12,-77.156504,32296,1957669092295526720,"{'ios': 'https://dc.lft.to/lastmile_qr_scan', 'android': 'https://dc.lft.to/lastmile_qr_scan'}",38.76843,
16th & Q St SE / Anacostia HS,42,23,-76.982359,31812,082633ec-1f3f-11e7-bf6b-3863bb334450,"{'ios': 'https://dc.lft.to/lastmile_qr_scan', 'android': 'https://dc.lft.to/lastmile_qr_scan'}",38.870695,"Washington, DC"
14th & G St NW,42,23,-77.03189760446548,31238,0824e24c-1f3f-11e7-bf6b-3863bb334450,"{'ios': 'https://dc.lft.to/lastmile_qr_scan', 'android': 'https://dc.lft.to/lastmile_qr_scan'}",38.89816396413188,"Washington, DC"
Kingsbridge Dr & Draper Dr,,11,-77.28208337922068,31387,1892762694406615240,"{'ios': 'https://dc.lft.to/lastmile_qr_scan', 'android': 'https://dc.lft.to/lastmile_qr_scan'}",38.868544703880275,
River Rd & Landy Ln,44,19,-77.103381,32046,0825e5ff-1f3f-11e7-bf6b-3863bb334450,"{'ios': 'https://dc.lft.to/lastmile_qr_scan', 'android': 'https://dc.lft.to/lastmile_qr_scan'}",38.964992,"Montgomery County, MD (South)"
Connecticut Ave & Tilden St NW,42,15,-77.061977237463,31313,0825c063-1f3f-11e7-bf6b-3863bb334450,"{'ios': 'https://dc.lft.to/lastmile_qr_scan', 'android': 'https://dc.lft.to/lastmile_qr_scan'}",38.94113915653008,"Washington, DC"
19th St & Pennsylvania Ave NW,42,15,-77.0429,31100,0824741d-1f3f-11e7-bf6b-3863bb334450,"{'ios': 'https://dc.lft.to/lastmile_qr_scan', 'android': 'https://dc.lft.to/lastmile_qr_scan'}",38.9003,"Washington, DC"
20th & I St NW,42,24,-77.045021,32226,2056454215099460074,"{'ios': 'https://dc.lft.to/lastmile_qr_scan', 'android': 'https://dc.lft.to/lastmile_qr_scan'}",38.90155,"Washington, DC"
Stadium Armory Metro,42,19,-76.97718724608421,31665,e9611824-0245-4482-bc8b-970c0eface40,"{'ios': 'https://dc.lft.to/lastmile_qr_scan', 'android': 'https://dc.lft.to/lastmile_qr_scan'}",38.88548252734069,"Washington, DC"
New Hampshire Ave & T St NW,42,23,-77.038252,31229,0824c376-1f3f-11e7-bf6b-3863bb334450,"{'ios': 'https://dc.lft.to/lastmile_qr_scan', 'android': 'https://dc.lft.to/lastmile_qr_scan'}",38.915544,"Washington, DC"
Westover Library / Washington Blvd & N McKinley Rd,41,15,-77.142317,31921,ce3db0b4-8c4f-4c6c-a059-73fff08c1edf,"{'ios': 'https://dc.lft.to/lastmile_qr_scan', 'android': 'https://dc.lft.to/lastmile_qr_scan'}",38.886048,"Arlington, VA"
21st & I St NW,42,47,-77.04644858837128,31205,08247b29-1f3f-11e7-bf6b-3863bb334450,"{'ios': 'https://dc.lft.to/lastmile_qr_scan', 'android': 'https://dc.lft.to/lastmile_qr_scan'}",38.90071062547463,"Washington, DC"
Citadel Ave & McGrath Blvd,43,15,-77.10933,32076,97506e92-1d23-4396-8ec8-e1901ccc22fa,"{'ios': 'https://dc.lft.to/lastmile_qr_scan', 'android': 'https://dc.lft.to/lastmile_qr_scan'}",39.049,"Montgomery County, MD (North)"
Fleet St & Waterfront St,133,15,-77.016059,32406,d4e8307d-5fb2-4ece-a66a-1522b1ebf79c,"{'ios': 'https://dc.lft.to/lastmile_qr_scan', 'android': 'https://dc.lft.to/lastmile_qr_scan'}",38.782633,Prince George's County
3rd & Elm St NW,42,15,-77.01597,31118,08256b2e-1f3f-11e7-bf6b-3863bb334450,"{'ios': 'https://dc.lft.to/lastmile_qr_scan', 'android': 'https://dc.lft.to/lastmile_qr_scan'}",38.917622,"Washington, DC"
Half & I St SW ,42,19,-77.011016,31680,2015611830034989628,"{'ios': 'https://dc.lft.to/lastmile_qr_scan', 'android': 'https://dc.lft.to/lastmile_qr_scan'}",38.879262,"Washington, DC"
Duke St & Jordan St,40,16,-77.10994,31966,a44778cc-274f-49d5-80dc-6e031113a7e3,"{'ios': 'https://dc.lft.to/lastmile_qr_scan', 'android': 'https://dc.lft.to/lastmile_qr_scan'}",38.812187,"Alexandria, VA"
Wilson Blvd & N Vermont St,41,12,-77.11456328630447,31926,72c402d9-63d9-4025-95a9-1577a34e5f52,"{'ios': 'https://dc.lft.to/lastmile_qr_scan', 'android': 'https://dc.lft.to/lastmile_qr_scan'}",38.87947660895433,"Arlington, VA"
N Shore Dr & Charter Oak Ct,104,11,-77.3490256,32323,2070121376129326036,"{'ios': 'https://dc.lft.to/lastmile_qr_scan', 'android': 'https://dc.lft.to/lastmile_qr_scan'}",38.9590819,"Fairfax, VA"
Wilson Blvd & N Illinois St ,41,15,-77.12712,31902,082600d8-1f3f-11e7-bf6b-3863bb334450,"{'ios': 'https://dc.lft.to/lastmile_qr_scan', 'android': 'https://dc.lft.to/lastmile_qr_scan'}",38.876528,"Arlington, VA"
King St & Patrick St,40,15,-77.049883,31044,08253ab7-1f3f-11e7-bf6b-3863bb334450,"{'ios': 'https://dc.lft.to/lastmile_qr_scan', 'android': 'https://dc.lft.to/lastmile_qr_scan'}",38.805317,"Alexandria, VA"
Grant Circle,42,19,-77.01822102069855,31421,4ae62d55-b4b3-47d7-ada9-79185e2be3b9,"{'ios': 'https://dc.lft.to/lastmile_qr_scan', 'android': 'https://dc.lft.to/lastmile_qr_scan'}",38.942024743273045,"Washington, DC"
Connecticut Ave & Yuma St NW,42,19,-77.065115,31318,08261e06-1f3f-11e7-bf6b-3863bb334450,"{'ios': 'https://dc.lft.to/lastmile_qr_scan', 'android': 'https://dc.lft.to/lastmile_qr_scan'}",38.947156,"Washington, DC"
Fairfax Blvd & Pickett Rd North,,12,-77.271911,32276,1872703318198888690,"{'ios': 'https://dc.lft.to/lastmile_qr_scan', 'android': 'https://dc.lft.to/lastmile_qr_scan'}",38.865091,
Crystal Dr & 15th St S,41,16,-77.049417,31003,08246cd5-1f3f-11e7-bf6b-3863bb334450,"{'ios': 'https://dc.lft.to/lastmile_qr_scan', 'android': 'https://dc.lft.to/lastmile_qr_scan'}",38.861056,"Arlington, VA"
14th & Irving St NW,42,31,-77.032224,31124,082631cd-1f3f-11e7-bf6b-3863bb334450,"{'ios': 'https://dc.lft.to/lastmile_qr_scan', 'android': 'https://dc.lft.to/lastmile_qr_scan'}",38.928552,"Washington, DC"
Duke St & John Carlyle St,40,15,-77.060866,31081,0825f465-1f3f-11e7-bf6b-3863bb334450,"{'ios': 'https://dc.lft.to/lastmile_qr_scan', 'android': 'https://dc.lft.to/lastmile_qr_scan'}",38.804378,"Alexandria, VA"
Woody Ward Rec Center,42,15,-76.926596,31722,c51f0090-a4f9-416d-a18b-6e0505b1dca1,"{'ios': 'https://dc.lft.to/lastmile_qr_scan', 'android': 'https://dc.lft.to/lastmile_qr_scan'}",38.879575,"Washington, DC"
Congressional Ln & E Jefferson St,43,15,-77.129235,32081,305ce636-23c1-42f3-a28b-8be4feca2e05,"{'ios': 'https://dc.lft.to/lastmile_qr_scan', 'android': 'https://dc.lft.to/lastmile_qr_scan'}",39.06219,"Montgomery County, MD (North)"
Langston Blvd & N Scott St,41,15,-77.080851,31080,0825f6b3-1f3f-11e7-bf6b-3863bb334450,"{'ios': 'https://dc.lft.to/lastmile_qr_scan', 'android': 'https://dc.lft.to/lastmile_qr_scan'}",38.897612,"Arlington, VA"
20th & L St NW,42,19,-77.044789,31250,08252c4a-1f3f-11e7-bf6b-3863bb334450,"{'ios': 'https://dc.lft.to/lastmile_qr_scan', 'android': 'https://dc.lft.to/lastmile_qr_scan'}",38.903584,"Washington, DC"
South Capitol & Atlantic St SW,42,19,-77.008133,31811,08261a52-1f3f-11e7-bf6b-3863bb334450,"{'ios': 'https://dc.lft.to/lastmile_qr_scan', 'android': 'https://dc.lft.to/lastmile_qr_scan'}",38.831516,"Washington, DC"
Wilson Blvd & N Uhle St,41,15,-77.0846,31017,0824ee0d-1f3f-11e7-bf6b-3863bb334450,"{'ios': 'https://dc.lft.to/lastmile_qr_scan', 'android': 'https://dc.lft.to/lastmile_qr_scan'}",38.891696,"Arlington, VA"
Mount Vernon Ave & Bruce St,40,15,-77.063093,31912,0826256c-1f3f-11e7-bf6b-3863bb334450,"{'ios': 'https://dc.lft.to/lastmile_qr_scan', 'android': 'https://dc.lft.to/lastmile_qr_scan'}",38.841291,"Alexandria, VA"
New Mexico & Cathedral Ave NW,,19,-77.083704,31394,1884993950171398452,"{'ios': 'https://dc.lft.to/lastmile_qr_scan', 'android': 'https://dc.lft.to/lastmile_qr_scan'}",38.930316,
4th & C St SW,42,48,-77.01770067214966,31243,08250371-1f3f-11e7-bf6b-3863bb334450,"{'ios': 'https://dc.lft.to/lastmile_qr_scan', 'android': 'https://dc.lft.to/lastmile_qr_scan'}",38.88637194054526,"Washington, DC"
Tyco Rd & Boyd Pointe Way,,12,-77.241436,31398,1890899353648060422,"{'ios': 'https://dc.lft.to/lastmile_qr_scan', 'android': 'https://dc.lft.to/lastmile_qr_scan'}",38.930767,
11th & F St NW,42,28,-77.026975,31262,0824e72a-1f3f-11e7-bf6b-3863bb334450,"{'ios': 'https://dc.lft.to/lastmile_qr_scan', 'android': 'https://dc.lft.to/lastmile_qr_scan'}",38.897857,"Washington, DC"
Alabama Ave & Stanton Rd SE / Shops at Park Village,42,19,-76.98185,31813,a6076d62-317a-40be-80a3-5654a042c20a,"{'ios': 'https://dc.lft.to/lastmile_qr_scan', 'android': 'https://dc.lft.to/lastmile_qr_scan'}",38.84627,"Washington, DC"
Carroll & Ethan Allen Ave,44,15,-77.006472,32026,0825b1a2-1f3f-11e7-bf6b-3863bb334450,"{'ios': 'https://dc.lft.to/lastmile_qr_scan', 'android': 'https://dc.lft.to/lastmile_qr_scan'}",38.977933,"Montgomery County, MD (South)"
14th & Newton St NW,42,19,-77.032956,31649,e9030e46-31bf-4def-befb-2e685ad48180,"{'ios': 'https://dc.lft.to/lastmile_qr_scan', 'android': 'https://dc.lft.to/lastmile_qr_scan'}",38.931991,"Washington, DC"
Washington Blvd & N Frederick St,41,11,-77.127671,31901,082616fc-1f3f-11e7-bf6b-3863bb334450,"{'ios': 'https://dc.lft.to/lastmile_qr_scan', 'android': 'https://dc.lft.to/lastmile_qr_scan'}",38.884829,"Arlington, VA"
Takoma Metro,42,19,-77.016855,31408,0825e31a-1f3f-11e7-bf6b-3863bb334450,"{'ios': 'https://dc.lft.to/lastmile_qr_scan', 'android': 'https://dc.lft.to/lastmile_qr_scan'}",38.975219,"Washington, DC"
Aurora Hills Cmty Ctr / 18th St & S Hayes St,41,12,-77.05949,31004,08246d68-1f3f-11e7-bf6b-3863bb334450,"{'ios': 'https://dc.lft.to/lastmile_qr_scan', 'android': 'https://dc.lft.to/lastmile_qr_scan'}",38.857866,"Arlington, VA"
Reston Station Blvd & Sunset Hills Rd,104,11,-77.331008,32228,3c6a1bf0-3aac-4406-990d-966cc8edca52,"{'ios': 'https://dc.lft.to/lastmile_qr_scan', 'android': 'https://dc.lft.to/lastmile_qr_scan'}",38.946735,"Fairfax, VA"
Glebe Rd & 11th St N,41,12,-77.116817,31038,082528fb-1f3f-11e7-bf6b-3863bb334450,"{'ios': 'https://dc.lft.to/lastmile_qr_scan', 'android': 'https://dc.lft.to/lastmile_qr_scan'}",38.883921,"Arlington, VA"
Woodglen Dr & Executive Blvd,43,16,-77.1135,32078,f69c2ab2-8d2b-493a-9da4-3a76d0e34753,"{'ios': 'https://dc.lft.to/lastmile_qr_scan', 'android': 'https://dc.lft.to/lastmile_qr_scan'}",39.04317,"Montgomery County, MD (North)"
Franklin St & S Washington St,40,19,-77.0487,31907,0826242b-1f3f-11e7-bf6b-3863bb334450,"{'ios': 'https://dc.lft.to/lastmile_qr_scan', 'android': 'https://dc.lft.to/lastmile_qr_scan'}",38.798133,"Alexandria, VA"
11th & V St NW,42,18,-77.027171,31332,c361d993-ebd8-4110-b10e-6bd2055fbe05,"{'ios': 'https://dc.lft.to/lastmile_qr_scan', 'android': 'https://dc.lft.to/lastmile_qr_scan'}",38.918199,"Washington, DC"
3rd & M St SE,42,23,-77.002161,31669,60e5f9b2-611b-4713-b34a-8ce2c2ee8ac8,"{'ios': 'https://dc.lft.to/lastmile_qr_scan', 'android': 'https://dc.lft.to/lastmile_qr_scan'}",38.876823,"Washington, DC"
District Ave & Strawberry Ln/Mosaic Market Garage,104,15,-77.230632,32262,13a88d55-7065-4bf0-9472-b78e8fafdfb3,"{'ios': 'https://dc.lft.to/lastmile_qr_scan', 'android': 'https://dc.lft.to/lastmile_qr_scan'}",38.872642,"Fairfax, VA"
Madison St & N Henry St,40,15,-77.049468,31099,08261620-1f3f-11e7-bf6b-3863bb334450,"{'ios': 'https://dc.lft.to/lastmile_qr_scan', 'android': 'https://dc.lft.to/lastmile_qr_scan'}",38.813485,"Alexandria, VA"
Branch & Pennsylvania Ave SE,42,15,-76.9599,31701,0824c29d-1f3f-11e7-bf6b-3863bb334450,"{'ios': 'https://dc.lft.to/lastmile_qr_scan', 'android': 'https://dc.lft.to/lastmile_qr_scan'}",38.8692,"Washington, DC"
Wilson Blvd & N Troy St,41,15,-77.082089,31924,d39e9b29-0ba7-453f-9f1e-b0a856d448b7,"{'ios': 'https://dc.lft.to/lastmile_qr_scan', 'android': 'https://dc.lft.to/lastmile_qr_scan'}",38.892556,"Arlington, VA"
Executive Blvd & E Jefferson St,43,15,-77.1257,32079,3ced143d-294e-4050-80a7-b40d76c42c0d,"{'ios': 'https://dc.lft.to/lastmile_qr_scan', 'android': 'https://dc.lft.to/lastmile_qr_scan'}",39.04873,"Montgomery County, MD (North)"
Chillum Rd & Riggs Rd / Riggs Plaza,133,15,-76.995922,32416,fbd404e2-bd4c-464b-b0db-9eaa011a90ae,"{'ios': 'https://dc.lft.to/lastmile_qr_scan', 'android': 'https://dc.lft.to/lastmile_qr_scan'}",38.961737,Prince George's County
Friendship Hts Metro / Wisconsin Ave & Wisconsin Cir,44,19,-77.085998,32014,08258b3f-1f3f-11e7-bf6b-3863bb334450,"{'ios': 'https://dc.lft.to/lastmile_qr_scan', 'android': 'https://dc.lft.to/lastmile_qr_scan'}",38.961763,"Montgomery County, MD (South)"
18th & New Hampshire Ave NW,42,19,-77.041829,31324,101824b5-2dd0-464c-bc7e-30481e00e6d7,"{'ios': 'https://dc.lft.to/lastmile_qr_scan', 'android': 'https://dc.lft.to/lastmile_qr_scan'}",38.911268,"Washington, DC"
Eastern Market Metro,42,32,-76.995358,31699,1996328198078007666,"{'ios': 'https://dc.lft.to/lastmile_qr_scan', 'android': 'https://dc.lft.to/lastmile_qr_scan'}",38.884181,"Washington, DC"
Army Navy Dr & S Nash St,41,11,-77.06812083721161,31095,0826029e-1f3f-11e7-bf6b-3863bb334450,"{'ios': 'https://dc.lft.to/lastmile_qr_scan', 'android': 'https://dc.lft.to/lastmile_qr_scan'}",38.86215024521491,"Arlington, VA"
W Columbia St & N Washington St,152,12,-77.166917,32609,33efb11b-052f-437e-ab74-2e6b4661822d,"{'ios': 'https://dc.lft.to/lastmile_qr_scan', 'android': 'https://dc.lft.to/lastmile_qr_scan'}",38.885621,"Falls Church, VA"
Canal Center Plaza & Fairfax St,40,15,-77.04014585740823,31985,2087542402526233418,"{'ios': 'https://dc.lft.to/lastmile_qr_scan', 'android': 'https://dc.lft.to/lastmile_qr_scan'}",38.81465868761216,"Alexandria, VA"
Nannie Helen Burroughs Ave & 49th St NE,42,11,-76.931862,31710,0825ba12-1f3f-11e7-bf6b-3863bb334450,"{'ios': 'https://dc.lft.to/lastmile_qr_scan', 'android': 'https://dc.lft.to/lastmile_qr_scan'}",38.898536,"Washington, DC"
Pentagon Row Plaza / Army Navy Dr & Joyce St,41,16,-77.06341624259947,31006,08246e8c-1f3f-11e7-bf6b-3863bb334450,"{'ios': 'https://dc.lft.to/lastmile_qr_scan', 'android': 'https://dc.lft.to/lastmile_qr_scan'}",38.86331354301248,"Arlington, VA"
Wheaton Library & Community Rec Center,44,11,-77.0510969,32084,2f12b7e0-a0f1-49ed-92d8-784133ea9168,"{'ios': 'https://dc.lft.to/lastmile_qr_scan', 'android': 'https://dc.lft.to/lastmile_qr_scan'}",39.0473228,"Montgomery County, MD (South)"
Temporary Rd & Old Reston Ave,104,11,-77.353414,32218,08263d19-1f3f-11e7-bf6b-3863bb334450,"{'ios': 'https://dc.lft.to/lastmile_qr_scan', 'android': 'https://dc.lft.to/lastmile_qr_scan'}",38.960084,"Fairfax, VA"
